~Version Information
#Data from Mudlog by Horizon Well Logging, Inc., (805)733-0972, horizon@horizon-well-logging.com
#Date Prepared 2020-12-24
#LAS format #2.0
#Generated by HorizonLog v.1.2020.9.0
#DMC Remark
#
#
~Well Information Block
#-------------------------------------------------------------------------
~WELL INFORMATION
#MNEM.UNIT   DATA                        DESCRIPTION
#-------------------------------------------------------------------------
STRT.feet                          130 : Start Depth
STOP.feet                        10987 : Stop Depth
STEP.feet                         1.00 : Depth Step
NULL.                        -999.2500 : Null Value
COMP.                        UtahForge : COMPANY
WELL.                      16A (78)-32 : WELL
FLD.                       Milford, UT : FIELD
LOC.   SEC 32 TWN 26S RNG 09W LAT: 38° : LOCATION
CNTY.                           Beaver : COUNTY
APIN.                                  : API Well Number
UWI.                                   : Unique Well Identifier
DSTRT.                      2020.10.29 : LOG DATE START
DEND.                       2020.12.24 : LOG DATE END
SRVC.       Horizon Well Logging, Inc. : SERVICE COMPANY
#-------------------------------------------------------------------------
~PARAMETER INFORMATION
#MNEM.UNIT   DATA                        DESCRIPTION
#-------------------------------------------------------------------------
FL.       SEC 32 TWN 26S RNG 09W LAT:  : Surface Location
SECT.                                  : Section
TOWN_NO.                               : Township Number
TOWN_DIR.                              : Township Direction
RANG_NO.                               : Range Number
RANGE_DIR.                             : Range Direction
X_LOC.                                 : X Surface Location
Y_LOC.                                 : Y Surface Location
EKB.feet                               : Elevation of Kelly Bushing
EGL.F                                  : Elevation of Ground Level
DMF.                                   : Drilling Measured From
TDD.feet                         10987 : Total Depth - Driller
BLI.feet                         10971 : Bottom Log Interval
TLI.feet                           130 : Top Log Interval
BS.inches                         8.75 : Bit Size
DFT.                              LSND : Drilling Fluid Type
MSS.                                   : Mud Sample Source
LUN.                                32 : Mud Logging Unit Number
R1.                                    : Remark Line 1
R2.                                    : Remark Line 2
R3.                                    : Remark Line 3
R4.                                    : Remark Line 4
R5.                                    : Remark Line 5
R6.                                    : Remark Line 6
R7.                                    : Remark Line 7
R8.                                    : Remark Line 8
R9.                                    : Remark Line 9
R10.                                   : Remark Line 10
#------------------------------------------------------------------
~Curve Information Block
#MNEM.UNIT                               DESCRIPTION
#---- ----                               -----------
DEPTH        .feet                     : Depth
MUDL_ROP     .ft/h                     : Penetration Rate
MUDL_WOB     .1000lbm                  : Weight On Bit
MUDL_CO2     .                         : CO2
MUDL_TEMPIN  .                         : Temperature In
MUDL_TEMPOUT .                         : Temperature Out
MUDL_PP      .psi                      : Pump Pressure
MUDL_SPM1    .1/min                    : Strokes Per Minute Pump #1
MUDL_SPM2    .1/min                    : Strokes Per Minute Pump #2
MUDL_SPM3    .1/min                    : Strokes Per Minute Pump #3
MUDL_FLOWIN  .gal/min                  : Flow In
MUDL_FLOWOUT .percent                  : % Flow Out
MUDL_GAINLOSS.bbls                     : Drilling Fluid Gain/Loss
MUDL_RPM     .rev/min                  : RPM
MUDL_TORQUE  .lb-ft                    : Torque
MUDL_PITVOL  .bbls                     : Pit Volume
#----------------------------------------------------------------------------------------------------------------------------
~A DEPTH  ROP  WOB  CO2  TEMPIN  TEMPOUT  PP  SPM1  SPM2  SPM3  FLOWIN  FLOWOUT%  GAINLOSS  RPM  TORQUE  PITVOL  
# ...
	9431	20	61	1606	92	123	3380	0	80	75	652	61	0	0	0	0
	9432	18	61	1606	93	123	3358	0	80	75	653	61	0	0	0	0
	9433	21	61	1606	93	123	3373	0	81	76	655	60	0	0	0	0
	9434	21	61	1606	93	121	3380	0	81	75	653	61	0	0	0	0
	9435	20	61	1606	93	122	3432	0	81	76	656	60	0	0	0	0
	9436	18	61	1606	93	122	3394	0	81	76	654	60	0	0	0	0
	9437	21	61	1606	93	122	3437	0	81	76	654	61	0	0	0	0
	9438	21	61	1325	93	121	3406	0	81	76	654	61	0	0	0	0
	9439	5	32	1466	93	122	3505	0	78	78	653	60	0	40	12049	0
	9440	56	42	1469	93	122	3474	0	79	78	654	60	0	43	11417	0
	9441	51	43	1466	94	122	3488	0	78	78	653	61	0	41	11137	0
	9442	52	44	1466	94	121	3465	0	78	77	652	59	0	43	12186	0
	9443	55	44	1466	94	122	3482	0	79	78	654	62	0	71	13413	0
	9444	56	44	1466	94	121	3473	0	78	77	651	61	0	72	12642	0
	9445	55	44	1468	94	121	3459	0	79	78	654	61	0	71	12774	0
	9446	60	44	1606	94	121	3476	0	78	78	652	61	0	72	12927	0
	9447	60	44	1606	94	122	3438	0	79	78	655	61	0	72	12488	0
	9448	59	44	1606	94	122	3493	0	78	78	653	61	0	72	12581	0
	9449	61	44	1606	94	122	3523	0	79	78	654	61	0	72	12883	0
	9450	52	44	1606	94	122	3498	0	78	78	652	61	0	72	12976	0
	9451	59	44	1606	94	121	3475	0	78	77	652	61	0	72	12788	0
	9452	60	44	1606	94	121	3556	0	78	78	653	62	0	72	13081	0
	9453	55	44	1606	94	122	3549	0	78	78	651	62	0	72	12688	0
	9454	66	44	1606	94	121	3553	0	78	78	654	61	0	72	13533	0
	9455	65	44	1606	94	122	3533	0	79	77	654	61	0	72	12622	0
	9456	65	44	1606	94	122	3529	0	79	78	655	61	0	72	13085	0
	9457	66	44	1606	94	122	3490	0	78	77	652	61	0	72	12909	0
	9458	59	44	1606	94	122	3600	0	78	78	654	60	0	72	13221	0
	9459	60	44	1606	94	122	3501	0	79	78	654	61	0	72	12933	0
	9460	66	44	1606	94	122	3552	0	78	77	651	59	0	72	13432	0
	9461	71	44	1606	94	121	3529	0	78	78	653	61	0	72	12877	0
	9462	73	44	1606	94	122	3517	0	78	78	654	61	0	72	12439	0
	9463	60	44	1606	94	122	3492	0	78	78	653	61	0	72	12690	0
	9464	60	44	1606	94	122	3492	0	78	77	651	61	0	72	12595	0
	9465	66	44	1606	94	122	3522	0	79	78	655	60	0	72	13057	0
	9466	66	44	1606	94	122	3495	0	78	77	651	61	0	72	13187	0
	9467	66	44	1606	94	121	3502	0	78	78	653	59	0	71	13047	0
	9468	66	44	1606	94	122	3513	0	78	78	653	62	0	72	12646	0
	9469	55	44	1606	94	121	3563	0	78	78	653	61	0	72	13093	0
	9470	72	44	1606	94	122	3515	0	78	77	651	61	0	72	13211	0
	9471	60	44	1606	94	122	3474	0	78	78	653	60	0	72	12650	0
	9472	65	44	1604	94	122	3521	0	79	78	655	61	0	72	13245	0
	9473	65	44	1606	93	122	3508	0	79	77	653	60	0	72	12539	0
	9474	60	44	1746	94	122	3504	0	78	77	652	62	0	72	12863	0
	9475	60	44	1746	94	122	3511	0	78	78	653	61	0	72	13243	0
	9476	66	45	1746	93	122	3499	0	78	77	651	62	0	72	12895	0
	9477	59	45	1746	93	122	3508	0	78	77	652	61	0	72	12877	0
	9478	66	45	1746	93	122	3496	0	78	78	652	60	0	72	12966	0
	9479	65	45	1746	93	122	3469	0	78	78	653	59	0	72	13071	0
	9480	60	45	1746	93	122	3492	0	78	78	654	61	0	72	12962	0
	9481	66	45	1746	93	122	3521	0	78	78	653	61	0	72	13375	0
	9482	71	45	1746	93	122	3542	0	78	77	653	61	0	72	12869	0
	9483	73	45	1746	93	120	3549	0	79	78	655	61	0	72	12812	0
	9484	65	45	1746	93	120	3490	0	78	78	654	60	0	72	13168	0
	9485	66	45	1746	94	120	3510	0	78	77	652	60	0	72	12913	0
	9486	65	45	1746	94	120	3494	0	78	77	653	61	0	71	13116	0
	9487	65	45	1746	94	120	3470	0	78	78	652	60	0	72	12666	0
	9488	66	45	1746	94	120	3450	0	79	78	655	61	0	73	12682	0
	9489	80	45	1746	94	120	3576	0	78	77	651	60	0	72	13557	0
	9490	90	45	1746	94	122	3458	0	78	78	653	60	0	72	12717	0
	9491	80	45	1746	94	121	3503	0	78	77	651	61	0	72	13428	0
	9492	72	45	1746	94	122	3464	0	79	78	655	61	0	72	12956	0
	9493	73	45	1746	94	122	3479	0	78	78	653	61	0	72	13397	0
	9494	71	45	1746	94	122	3486	0	78	77	652	61	0	71	12828	0
	9495	65	45	1746	94	122	3414	0	79	78	654	60	0	72	12771	0
	9496	72	45	1746	94	122	3484	0	78	77	652	61	0	72	12727	0
	9497	66	45	1746	94	121	3473	0	78	77	651	61	0	72	12456	0
	9498	72	45	1746	94	122	3458	0	78	77	652	62	0	72	13134	0
	9499	56	45	1606	94	121	3499	0	78	78	654	61	0	71	12988	0
	9500	72	45	1466	94	122	3493	0	79	78	654	61	0	72	12893	0
	9501	60	44	1466	94	122	3464	0	79	78	654	59	0	72	13174	0
	9502	79	45	1466	94	121	3465	0	79	78	654	62	0	72	12782	0
	9503	65	45	1466	94	122	3495	0	79	78	654	60	0	72	12879	0
	9504	72	45	1606	94	122	3543	0	79	78	654	62	0	72	13213	0
	9505	48	45	1606	92	122	3589	0	78	79	655	61	0	69	12761	0
	9506	51	45	1606	92	121	3518	0	78	79	656	62	0	69	12984	0
	9507	56	45	1606	92	121	3534	0	77	79	652	64	0	69	12848	0
	9508	48	45	1606	92	121	3578	0	78	79	655	61	0	69	12723	0
	9509	48	45	1606	92	121	3511	0	78	79	655	61	0	69	12784	0
	9510	48	45	1606	92	122	3542	0	77	79	654	61	0	69	12567	0
	9511	51	45	1606	92	121	3540	0	78	79	655	62	0	69	13087	0
	9512	52	45	1606	92	122	3520	0	78	79	656	61	0	69	12804	0
	9513	51	45	1606	92	122	3526	0	78	79	655	61	0	69	12545	0
	9514	56	45	1606	92	122	3520	0	78	79	656	61	0	70	12597	0
	9515	48	45	1606	92	121	3537	0	78	79	657	61	0	69	12296	0
	9516	51	45	1606	92	121	3570	0	78	79	654	62	0	69	12520	0
	9517	56	45	1606	92	122	3534	0	78	79	654	61	0	69	12551	0
	9518	55	45	1606	92	122	3551	0	78	79	656	61	0	69	13087	0
	9519	52	45	1606	93	122	3553	0	77	79	653	60	0	69	12739	0
	9520	48	45	1603	93	121	3571	0	77	79	654	61	0	70	12482	0
	9521	52	45	1606	93	122	3521	0	78	79	656	62	0	69	12526	0
	9522	55	45	1603	92	122	3513	0	77	79	655	61	0	69	12749	0
	9523	51	45	1606	92	121	3528	0	77	79	654	61	0	69	12456	0
	9524	52	45	1606	93	121	3542	0	78	79	654	61	0	69	12512	0
	9525	52	45	1606	93	121	3510	0	78	79	655	60	0	69	12312	0
	9526	55	45	1746	93	122	3572	0	78	79	655	61	0	69	12656	0
	9527	56	45	1746	93	121	3520	0	78	79	654	61	0	69	12836	0
	9528	51	45	1746	93	122	3485	0	77	79	653	60	0	69	12717	0
	9529	55	45	1746	93	121	3535	0	78	79	657	61	0	69	12595	0
	9530	55	45	1746	93	121	3532	0	78	79	657	62	0	69	12869	0
	9531	52	45	1606	93	121	3517	0	77	79	654	60	0	69	12634	0
	9532	60	45	1606	93	122	3582	0	77	79	654	62	0	69	12771	0
	9533	55	45	1606	93	122	3566	0	78	79	655	62	0	69	12978	0
	9534	60	45	1606	93	121	3561	0	77	79	653	61	0	69	12942	0
	9535	56	45	1606	93	121	3514	0	78	79	657	62	0	69	12834	0
	9536	51	45	1746	93	122	3525	0	78	79	655	62	0	69	12901	0
	9537	56	45	1746	92	122	3548	0	77	79	655	60	0	69	12674	0
	9538	48	45	1746	92	121	3541	0	78	79	656	61	0	69	12988	0
	9539	56	45	1746	93	121	3538	0	78	79	654	63	0	69	12543	0
	9540	48	45	1746	93	122	3566	0	77	79	654	61	0	69	12842	0
	9541	55	45	1746	93	122	3527	0	78	79	655	62	0	69	12812	0
	9542	55	45	1746	93	122	3530	0	77	79	653	60	0	69	12680	0
	9543	48	45	1746	93	121	3589	0	78	79	654	62	0	69	12804	0
	9544	51	45	1746	92	122	3530	0	78	79	656	62	0	69	12713	0
	9545	52	45	1746	92	122	3557	0	77	79	653	61	0	69	12782	0
	9546	55	45	1746	92	122	3549	0	77	79	653	61	0	69	12743	0
	9547	56	45	1746	92	122	3555	0	77	79	653	61	0	69	13029	0
	9548	51	45	1746	93	121	3566	0	78	79	654	61	0	69	12472	0
	9549	42	43	1746	93	122	3590	0	77	79	654	61	0	69	12450	0
	9550	48	43	1746	93	121	3546	0	78	79	655	61	0	69	12429	0
	9551	48	43	1746	93	122	3516	0	78	79	656	61	0	69	12563	0
	9552	51	43	1746	93	122	3573	0	77	79	655	61	0	69	12984	0
	9553	55	43	1746	93	121	3581	0	78	79	655	61	0	69	13290	0
	9554	56	43	1746	93	122	3586	0	78	79	655	61	0	69	12988	0
	9555	56	43	1606	93	122	3593	0	78	79	656	61	0	69	12571	0
	9556	52	43	1606	93	121	3578	0	77	79	654	62	0	70	12047	0
	9557	52	43	1466	93	122	3532	0	78	79	655	61	0	69	12498	0
	9558	51	43	1466	93	121	3550	0	78	79	655	61	0	69	12885	0
	9559	48	43	1466	93	122	3545	0	77	79	653	61	0	69	12826	0
	9560	60	43	1470	93	122	3573	0	77	79	654	60	0	69	12494	0
	9561	55	43	1466	93	121	3567	0	77	79	654	61	0	69	12549	0
	9562	56	43	1466	93	122	3535	0	78	79	657	61	0	69	12553	0
	9563	60	43	1466	93	122	3570	0	77	79	654	62	0	69	12348	0
	9564	60	43	1466	93	122	3583	0	78	79	656	61	0	69	12954	0
	9565	56	43	1473	93	122	3551	0	78	79	655	61	0	69	13002	0
	9566	55	43	1604	93	122	3557	0	78	79	656	62	0	69	12944	0
	9567	66	43	1606	93	122	3649	0	77	78	651	61	0	69	13438	0
	9568	118	41	1606	93	122	3541	0	78	79	656	61	0	69	12725	0
	9569	56	43	1606	93	121	3600	0	78	79	655	60	0	69	12780	0
	9570	56	43	1606	93	120	3525	0	77	79	653	61	0	69	12277	0
	9571	56	43	1606	93	120	3526	0	78	79	657	62	0	69	12678	0
	9572	51	43	1606	93	120	3522	0	77	79	654	62	0	69	12563	0
