~Version Information
#Data from Mudlog by Horizon Well Logging, Inc., (805)733-0972, horizon@horizon-well-logging.com
#Date Prepared 2020-12-24
#LAS format #2.0
#Generated by HorizonLog v.1.2020.9.0
#DMC Remark
#
#
~Well Information Block
#-------------------------------------------------------------------------
~WELL INFORMATION
#MNEM.UNIT   DATA                        DESCRIPTION
#-------------------------------------------------------------------------
STRT.feet                          130 : Start Depth
STOP.feet                        10987 : Stop Depth
STEP.feet                         1.00 : Depth Step
NULL.                        -999.2500 : Null Value
COMP.                        UtahForge : COMPANY
WELL.                      16A (78)-32 : WELL
FLD.                       Milford, UT : FIELD
LOC.   SEC 32 TWN 26S RNG 09W LAT: 38° : LOCATION
CNTY.                           Beaver : COUNTY
APIN.                                  : API Well Number
UWI.                                   : Unique Well Identifier
DSTRT.                      2020.10.29 : LOG DATE START
DEND.                       2020.12.24 : LOG DATE END
SRVC.       Horizon Well Logging, Inc. : SERVICE COMPANY
#-------------------------------------------------------------------------
~PARAMETER INFORMATION
#MNEM.UNIT   DATA                        DESCRIPTION
#-------------------------------------------------------------------------
FL.       SEC 32 TWN 26S RNG 09W LAT:  : Surface Location
SECT.                                  : Section
TOWN_NO.                               : Township Number
TOWN_DIR.                              : Township Direction
RANG_NO.                               : Range Number
RANGE_DIR.                             : Range Direction
X_LOC.                                 : X Surface Location
Y_LOC.                                 : Y Surface Location
EKB.feet                               : Elevation of Kelly Bushing
EGL.F                                  : Elevation of Ground Level
DMF.                                   : Drilling Measured From
TDD.feet                         10987 : Total Depth - Driller
BLI.feet                         10971 : Bottom Log Interval
TLI.feet                           130 : Top Log Interval
BS.inches                         8.75 : Bit Size
DFT.                              LSND : Drilling Fluid Type
MSS.                                   : Mud Sample Source
LUN.                                32 : Mud Logging Unit Number
R1.                                    : Remark Line 1
R2.                                    : Remark Line 2
R3.                                    : Remark Line 3
R4.                                    : Remark Line 4
R5.                                    : Remark Line 5
R6.                                    : Remark Line 6
R7.                                    : Remark Line 7
R8.                                    : Remark Line 8
R9.                                    : Remark Line 9
R10.                                   : Remark Line 10
#------------------------------------------------------------------
~Curve Information Block
#MNEM.UNIT                               DESCRIPTION
#---- ----                               -----------
DEPTH        .feet                     : Depth
MUDL_ROP     .ft/h                     : Penetration Rate
MUDL_WOB     .1000lbm                  : Weight On Bit
MUDL_CO2     .                         : CO2
MUDL_TEMPIN  .                         : Temperature In
MUDL_TEMPOUT .                         : Temperature Out
MUDL_PP      .psi                      : Pump Pressure
MUDL_SPM1    .1/min                    : Strokes Per Minute Pump #1
MUDL_SPM2    .1/min                    : Strokes Per Minute Pump #2
MUDL_SPM3    .1/min                    : Strokes Per Minute Pump #3
MUDL_FLOWIN  .gal/min                  : Flow In
MUDL_FLOWOUT .percent                  : % Flow Out
MUDL_GAINLOSS.bbls                     : Drilling Fluid Gain/Loss
MUDL_RPM     .rev/min                  : RPM
MUDL_TORQUE  .lb-ft                    : Torque
MUDL_PITVOL  .bbls                     : Pit Volume
#----------------------------------------------------------------------------------------------------------------------------
~A DEPTH  ROP  WOB  CO2  TEMPIN  TEMPOUT  PP  SPM1  SPM2  SPM3  FLOWIN  FLOWOUT%  GAINLOSS  RPM  TORQUE  PITVOL  
# ...
	8712	89	45	1458	98	126	3323	0	81	73	643	60	0	70	11180	0
	8713	90	45	1466	97	126	3412	0	81	73	646	60	0	70	10639	0
	8714	6	15	1462	97	126	3319	0	82	72	647	60	0	70	9659	0
	8715	119	29	1462	97	127	3438	0	82	73	649	60	0	70	10044	0
	8716	91	38	1460	97	126	3449	0	83	72	649	62	0	70	10475	0
	8717	89	40	1593	97	126	3434	0	82	72	648	58	0	70	10923	0
	8718	104	42	1593	97	126	3533	0	83	73	651	60	0	70	10589	0
	8719	89	42	1593	97	126	3488	0	82	72	647	60	0	70	10903	0
	8720	104	43	1593	97	125	3538	0	82	72	647	60	0	70	10552	0
	8721	89	43	1593	97	125	3475	0	83	73	650	60	0	70	10870	0
	8722	91	43	1593	97	125	3424	0	81	72	644	60	0	70	11117	0
	8723	102	43	1593	97	125	3323	0	81	73	642	60	0	69	11368	0
	8724	91	44	1593	97	126	3476	0	81	72	643	60	0	70	10896	0
	8725	79	44	1593	97	125	3450	0	81	72	644	60	0	70	11601	0
	8726	104	44	1595	97	125	3446	0	81	72	643	59	0	70	11237	0
	8727	79	44	1593	97	125	3397	0	81	72	643	61	0	70	10973	0
	8728	91	44	1593	97	125	3418	0	81	72	642	60	0	69	11000	0
	8729	79	44	1593	97	126	3300	0	81	72	640	60	0	70	11067	0
	8730	81	44	1593	97	126	3403	0	82	72	645	58	0	70	11091	0
	8731	80	45	1593	97	126	3421	0	81	72	643	59	0	70	11077	0
	8732	91	45	1593	97	125	3430	0	82	73	647	60	0	70	11119	0
	8733	102	45	1593	97	125	3516	0	81	72	642	60	0	70	11303	0
	8734	119	44	1593	97	125	3468	0	81	73	647	60	0	70	11028	0
	8735	122	44	1593	97	125	3488	0	81	72	642	59	0	70	11089	0
	8736	89	45	1593	97	125	3404	0	81	73	646	58	0	70	10623	0
	8737	81	45	1593	97	125	3415	0	81	72	641	60	0	70	10568	0
	8738	79	45	1593	97	125	3400	0	82	72	644	60	0	70	10406	0
	8739	91	45	1593	97	125	3491	0	82	73	646	60	0	70	10441	0
	8740	89	45	1593	97	125	3379	0	81	72	641	60	0	70	10704	0
	8741	80	45	1593	97	125	3401	0	81	72	643	60	0	70	10419	0
	8742	89	45	1602	97	126	3418	0	81	72	642	61	0	70	10540	0
	8743	91	45	1593	97	126	3357	0	81	73	646	59	0	70	10360	0
	8744	80	44	1466	97	125	3558	0	80	75	647	59	0	70	11178	0
	8745	103	45	1462	97	125	3588	0	80	75	648	60	0	70	11607	0
	8746	91	45	1466	96	125	3596	0	80	75	648	59	0	71	11263	0
	8747	102	45	1315	97	126	3616	0	80	75	647	59	0	71	11006	0
	8748	103	45	1313	97	126	3526	0	81	75	651	59	0	71	10975	0
	8749	22	24	1313	97	125	3487	0	83	73	653	60	0	71	10046	0
	8750	146	34	1320	97	125	3581	0	83	74	658	60	0	72	10633	0
	8751	101	43	1320	97	125	3638	0	83	74	660	60	0	70	11453	0
	8752	103	45	1313	97	125	3662	0	83	74	658	61	0	71	9704	0
	8753	81	43	1313	97	125	3692	0	83	74	658	56	0	71	11733	0
	8754	122	44	1321	97	125	3406	0	82	73	648	59	0	70	10123	0
	8755	65	45	1314	97	125	3639	0	83	74	657	59	0	71	10712	0
	8756	81	45	1462	97	125	3623	0	83	74	658	60	0	71	11301	0
	8757	71	43	1466	97	125	3681	0	83	74	655	60	0	71	10512	0
	8758	104	40	1466	97	125	3601	0	83	74	659	59	0	71	10552	0
	8759	90	44	1464	97	125	3454	0	83	72	647	59	0	71	10631	0
	8760	80	45	1462	97	125	3635	0	83	74	657	59	0	71	11164	0
	8761	91	45	1466	96	125	3611	0	81	74	646	59	0	71	11168	0
	8762	90	45	1462	97	125	3527	0	80	74	645	61	0	71	10465	0
	8763	60	45	1466	97	125	3463	0	81	76	659	59	0	71	10423	0
	8764	65	45	1464	97	125	3422	0	80	74	645	59	0	71	9987	0
	8765	61	45	1462	97	125	3463	0	80	73	644	60	0	70	10283	0
	8766	65	45	1462	97	126	3509	0	81	74	647	60	0	71	10534	0
	8767	73	45	1466	97	125	3532	0	80	73	643	59	0	71	10285	0
	8768	71	45	1462	97	125	3361	0	80	72	636	59	0	71	10238	0
	8769	73	45	1462	97	125	3509	0	80	74	646	60	0	71	11123	0
	8770	89	45	1466	97	112	3534	0	80	74	646	59	0	71	11044	0
	8771	81	45	1462	96	114	3576	0	81	74	646	60	0	71	10868	0
	8772	80	45	1464	97	124	3514	0	81	74	647	60	0	71	10631	0
	8773	79	45	1466	96	125	3274	0	80	70	627	60	0	71	10694	0
	8774	72	45	1466	96	125	3498	0	80	73	642	59	0	71	10621	0
	8775	65	45	1462	97	125	3472	0	80	73	644	60	0	71	10453	0
	8776	73	45	1466	96	125	3509	0	81	73	645	61	0	71	10838	0
	8777	79	45	1462	97	125	3468	0	81	74	647	60	0	71	10793	0
	8778	73	45	1466	97	124	3438	0	81	74	647	59	0	71	10485	0
	8779	72	45	1462	97	124	3453	0	80	73	644	59	0	71	10510	0
	8780	73	45	1466	97	124	3451	0	81	74	648	62	0	70	11056	0
	8781	80	45	1466	97	124	3305	0	80	74	645	59	0	71	11048	0
	8782	71	45	1466	97	124	3486	0	81	73	645	57	0	71	10658	0
	8783	80	45	1460	97	124	3497	0	81	74	646	60	0	71	10994	0
	8784	81	45	1466	96	124	3504	0	80	73	644	60	0	71	10870	0
	8785	81	45	1464	97	124	3530	0	81	73	645	56	0	71	10346	0
	8786	79	45	1460	97	124	3460	0	80	74	645	59	0	71	10651	0
	8787	65	45	1460	97	124	3457	0	80	73	644	60	0	70	10364	0
	8788	66	45	1593	96	124	3500	0	81	74	646	60	0	71	11044	0
	8789	73	45	1593	96	124	3423	0	80	73	641	60	0	70	11216	0
	8790	79	45	1466	97	124	3477	0	80	74	645	60	0	72	10870	0
	8791	73	45	1593	97	123	3537	0	81	74	646	60	0	71	10775	0
	8792	71	45	1593	97	123	3473	0	81	73	645	60	0	71	10279	0
	8793	73	45	1593	97	123	3467	0	81	74	645	58	0	71	10556	0
	8794	65	45	1596	96	123	3410	0	81	74	647	59	0	71	10518	0
	8795	65	45	1593	97	123	3433	0	80	73	644	59	0	71	10429	0
	8796	66	45	1593	97	123	3426	0	80	73	643	59	0	71	10216	0
	8797	72	45	1600	97	123	3461	0	81	74	648	59	0	71	10822	0
	8798	73	45	1593	97	123	3465	0	81	74	646	60	0	71	10783	0
	8799	72	45	1594	97	123	3536	0	81	74	647	59	0	71	10664	0
	8800	80	45	1736	97	123	3452	0	80	74	646	61	0	71	10625	0
	8801	6	21	1740	95	123	3373	0	76	78	648	60	0	70	9779	0
	8802	121	30	1740	93	123	3367	0	76	78	648	60	0	70	10755	0
	8803	143	39	1600	94	123	3493	0	76	78	647	58	0	71	10884	0
	8804	60	45	1593	93	123	3487	0	76	79	648	60	0	70	11180	0
	8805	81	45	1593	93	123	3419	0	77	80	654	60	0	69	11265	0
	8806	71	45	1595	93	123	3461	0	76	79	649	60	0	70	11465	0
	8807	73	45	1594	93	123	3513	0	76	79	648	60	0	70	11079	0
	8808	80	45	1596	94	112	3490	0	77	78	649	58	0	70	11170	0
	8809	79	45	1595	93	97	3560	0	77	78	649	61	0	70	11733	0
	8810	90	45	1598	93	119	3565	0	77	79	651	60	0	70	11129	0
	8811	90	45	1599	93	121	3519	0	76	78	648	60	0	70	10834	0
	8812	90	45	1600	93	122	3488	0	76	78	644	61	0	69	10619	0
	8813	80	45	1595	93	122	3484	0	77	79	651	60	0	70	10911	0
	8814	80	45	1599	93	122	3485	0	76	79	648	59	0	70	10834	0
	8815	79	45	1598	93	122	3443	0	76	78	648	60	0	70	10639	0
	8816	80	45	1593	93	122	3180	0	76	74	628	59	0	70	10856	0
	8817	66	45	1740	93	122	3442	0	77	79	651	58	0	70	10899	0
	8818	65	45	1746	93	122	3494	0	77	78	649	58	0	70	10832	0
	8819	72	45	1742	93	122	3451	0	77	79	651	61	0	70	10757	0
	8820	72	45	1746	93	122	3456	0	76	79	649	58	0	70	10522	0
	8821	72	45	1740	93	122	3477	0	76	79	649	59	0	70	10627	0
	8822	73	45	1742	93	122	3460	0	76	78	646	59	0	70	10575	0
	8823	72	45	1602	94	122	3534	0	77	79	650	59	0	71	10321	0
	8824	72	45	1595	93	122	3466	0	76	79	650	59	0	70	10647	0
	8825	81	45	1606	93	122	3537	0	76	78	648	60	0	70	10137	0
	8826	60	45	1602	93	122	3455	0	76	78	648	60	0	70	10737	0
	8827	65	45	1594	93	122	3503	0	76	78	647	59	0	70	10334	0
	8828	73	45	1599	93	122	3259	0	78	71	624	58	0	70	10408	0
	8829	55	45	1604	93	122	3490	0	77	78	649	60	0	70	10157	0
	8830	72	45	1602	93	120	3444	0	76	78	649	61	0	70	10570	0
	8831	71	45	1602	93	121	3476	0	76	79	649	59	0	70	10131	0
	8832	81	45	1602	93	121	3447	0	76	78	648	60	0	70	10457	0
	8833	73	45	1606	93	120	3509	0	76	78	649	58	0	70	10639	0
	8834	71	45	1466	92	121	3492	0	76	78	646	59	0	70	10309	0
	8835	61	41	1466	92	120	3354	0	75	78	644	59	0	69	10299	0
	8836	79	45	1466	92	120	3494	0	76	78	648	61	0	70	10635	0
	8837	60	45	1466	92	121	3440	0	76	78	648	62	0	70	9953	0
	8838	90	44	1466	92	121	3437	0	76	78	648	60	0	70	10496	0
	8839	7	23	1600	91	122	3508	0	79	79	661	59	0	68	9084	0
	8840	120	35	1604	91	121	3579	0	79	79	663	60	0	68	9898	0
	8841	60	45	1603	91	122	3616	0	80	79	667	59	0	68	10481	0
	8842	60	45	1606	91	122	3591	0	79	79	663	60	0	69	9880	0
	8843	55	45	1606	91	122	3585	0	79	79	665	61	0	68	10131	0
	8844	60	45	1606	91	122	3363	0	75	78	642	60	0	68	10396	0
	8845	61	45	1606	91	122	3383	0	76	79	646	60	0	68	10479	0
	8846	55	45	1603	91	122	3381	0	75	78	640	61	0	68	10327	0
	8847	55	45	1606	91	121	3334	0	75	79	645	58	0	68	10372	0
	8848	60	45	1600	90	122	3384	0	75	78	642	58	0	68	10411	0
	8849	55	45	1606	91	122	3337	0	75	78	643	61	0	68	10303	0
	8850	61	45	1604	91	121	3332	0	75	79	645	59	0	68	10579	0
	8851	60	45	1602	91	121	3361	0	75	78	643	60	0	68	10485	0
	8852	61	45	1606	91	121	3374	0	76	78	645	60	0	68	10190	0
