~Version Information
#Data from Mudlog by Horizon Well Logging, Inc., (805)733-0972, horizon@horizon-well-logging.com
#Date Prepared 2020-12-24
#LAS format #2.0
#Generated by HorizonLog v.1.2020.9.0
#DMC Remark
#
#
~Well Information Block
#-------------------------------------------------------------------------
~WELL INFORMATION
#MNEM.UNIT   DATA                        DESCRIPTION
#-------------------------------------------------------------------------
STRT.feet                          130 : Start Depth
STOP.feet                        10987 : Stop Depth
STEP.feet                         1.00 : Depth Step
NULL.                        -999.2500 : Null Value
COMP.                        UtahForge : COMPANY
WELL.                      16A (78)-32 : WELL
FLD.                       Milford, UT : FIELD
LOC.   SEC 32 TWN 26S RNG 09W LAT: 38° : LOCATION
CNTY.                           Beaver : COUNTY
APIN.                                  : API Well Number
UWI.                                   : Unique Well Identifier
DSTRT.                      2020.10.29 : LOG DATE START
DEND.                       2020.12.24 : LOG DATE END
SRVC.       Horizon Well Logging, Inc. : SERVICE COMPANY
#-------------------------------------------------------------------------
~PARAMETER INFORMATION
#MNEM.UNIT   DATA                        DESCRIPTION
#-------------------------------------------------------------------------
FL.       SEC 32 TWN 26S RNG 09W LAT:  : Surface Location
SECT.                                  : Section
TOWN_NO.                               : Township Number
TOWN_DIR.                              : Township Direction
RANG_NO.                               : Range Number
RANGE_DIR.                             : Range Direction
X_LOC.                                 : X Surface Location
Y_LOC.                                 : Y Surface Location
EKB.feet                               : Elevation of Kelly Bushing
EGL.F                                  : Elevation of Ground Level
DMF.                                   : Drilling Measured From
TDD.feet                         10987 : Total Depth - Driller
BLI.feet                         10971 : Bottom Log Interval
TLI.feet                           130 : Top Log Interval
BS.inches                         8.75 : Bit Size
DFT.                              LSND : Drilling Fluid Type
MSS.                                   : Mud Sample Source
LUN.                                32 : Mud Logging Unit Number
R1.                                    : Remark Line 1
R2.                                    : Remark Line 2
R3.                                    : Remark Line 3
R4.                                    : Remark Line 4
R5.                                    : Remark Line 5
R6.                                    : Remark Line 6
R7.                                    : Remark Line 7
R8.                                    : Remark Line 8
R9.                                    : Remark Line 9
R10.                                   : Remark Line 10
#------------------------------------------------------------------
~Curve Information Block
#MNEM.UNIT                               DESCRIPTION
#---- ----                               -----------
DEPTH        .feet                     : Depth
MUDL_ROP     .ft/h                     : Penetration Rate
MUDL_WOB     .1000lbm                  : Weight On Bit
MUDL_CO2     .                         : CO2
MUDL_TEMPIN  .                         : Temperature In
MUDL_TEMPOUT .                         : Temperature Out
MUDL_PP      .psi                      : Pump Pressure
MUDL_SPM1    .1/min                    : Strokes Per Minute Pump #1
MUDL_SPM2    .1/min                    : Strokes Per Minute Pump #2
MUDL_SPM3    .1/min                    : Strokes Per Minute Pump #3
MUDL_FLOWIN  .gal/min                  : Flow In
MUDL_FLOWOUT .percent                  : % Flow Out
MUDL_GAINLOSS.bbls                     : Drilling Fluid Gain/Loss
MUDL_RPM     .rev/min                  : RPM
MUDL_TORQUE  .lb-ft                    : Torque
MUDL_PITVOL  .bbls                     : Pit Volume
#----------------------------------------------------------------------------------------------------------------------------
~A DEPTH  ROP  WOB  CO2  TEMPIN  TEMPOUT  PP  SPM1  SPM2  SPM3  FLOWIN  FLOWOUT%  GAINLOSS  RPM  TORQUE  PITVOL  
# ...
	10143	79	40	1333	89	122	4314	0	79	75	648	60	0	55	13019	0
	10144	90	40	1325	89	121	4196	0	79	75	646	59	0	55	13264	0
	10145	81	40	1328	89	121	4337	0	79	76	648	60	0	55	13557	0
	10146	89	40	1328	89	122	4337	0	79	75	647	60	0	60	13458	0
	10147	80	40	1325	89	122	4253	0	79	76	647	59	0	57	14211	0
	10148	91	40	1325	89	122	4327	0	79	76	647	61	0	60	13533	0
	10149	80	40	1328	89	121	4195	0	79	75	645	60	0	60	13298	0
	10150	80	40	1466	89	121	4141	0	79	75	646	61	0	60	13426	0
	10151	81	40	1325	89	122	4290	0	79	75	646	60	0	60	13170	0
	10152	79	40	1326	89	122	4229	0	79	76	648	60	0	60	13849	0
	10153	89	40	1326	89	120	4262	0	79	76	647	59	0	60	13486	0
	10154	81	40	1326	90	121	4220	0	79	75	648	61	0	60	13565	0
	10155	102	40	1325	90	119	4442	0	79	75	645	59	0	58	13841	0
	10156	102	40	1478	90	120	4230	0	79	75	645	58	0	65	13668	0
	10157	104	40	1329	90	120	4291	0	79	75	648	57	0	65	13488	0
	10158	79	40	1325	90	120	4394	0	79	75	646	61	0	65	13685	0
	10159	91	40	1474	90	120	4261	0	79	75	645	60	0	65	14535	0
	10160	80	38	1325	90	120	4396	0	79	76	648	58	0	65	13932	0
	10161	145	38	1325	90	120	4302	0	79	76	647	59	0	65	13507	0
	10162	90	40	1325	90	120	4352	0	79	75	648	60	0	65	13646	0
	10163	90	40	1325	90	121	4167	0	79	76	647	60	0	65	13699	0
	10164	80	40	1329	90	121	4289	0	79	76	648	59	0	65	13338	0
	10165	91	40	1325	90	121	4229	0	79	76	647	61	0	65	13492	0
	10166	89	40	1326	90	122	4211	0	79	75	648	58	0	65	13594	0
	10167	90	40	1325	90	121	4213	0	79	75	646	59	0	65	13535	0
	10168	91	40	1325	90	121	4215	0	79	75	645	56	0	65	13353	0
	10169	80	40	1329	91	122	4245	0	79	75	645	57	0	65	13251	0
	10170	89	40	1325	91	121	4291	0	79	75	646	59	0	65	13517	0
	10171	91	40	1325	91	121	4233	0	79	76	648	58	0	65	13290	0
	10172	90	40	1325	91	122	4268	0	79	75	646	59	0	65	13150	0
	10173	90	40	1325	91	122	4225	0	79	75	647	58	0	65	13375	0
	10174	102	40	1326	91	121	4191	0	79	76	648	59	0	65	13685	0
	10175	91	40	1325	91	121	4173	0	79	75	645	61	0	65	13525	0
	10176	90	40	1326	91	122	4332	0	79	76	646	61	0	65	13448	0
	10177	103	40	1325	91	122	4323	0	79	76	650	60	0	65	13796	0
	10178	91	40	1325	91	122	4283	0	79	75	645	58	0	55	12816	0
	10179	102	40	1325	91	121	4260	0	79	75	645	61	0	55	13029	0
	10180	80	40	1325	91	122	4208	0	79	75	644	60	0	55	12980	0
	10181	90	40	1325	91	122	4281	0	79	76	646	61	0	55	13304	0
	10182	80	40	1325	91	122	4321	0	79	75	644	59	0	55	13298	0
	10183	105	40	1325	91	121	4389	0	79	75	647	60	0	56	13409	0
	10184	102	40	1325	91	122	4298	0	79	76	648	60	0	55	13191	0
	10185	90	40	1325	91	121	4243	0	79	76	648	60	0	54	13166	0
	10186	91	40	1325	91	121	4361	0	79	76	650	60	0	54	13112	0
	10187	80	40	1325	91	122	4319	0	79	76	648	60	0	54	13016	0
	10188	80	40	1325	91	122	4287	0	79	75	646	58	0	54	12877	0
	10189	91	40	1325	92	121	4271	0	79	75	645	56	0	54	12964	0
	10190	90	40	1325	92	121	4291	0	79	76	647	59	0	54	12674	0
	10191	72	40	1325	92	122	4192	0	79	76	647	58	0	54	12800	0
	10192	90	40	1325	92	122	4237	0	79	75	646	60	0	54	12970	0
	10193	79	40	1325	92	122	4225	0	79	75	646	59	0	54	13118	0
	10194	81	40	1325	92	122	4321	0	79	76	647	60	0	54	13707	0
	10195	89	40	1325	92	122	4262	0	79	75	646	60	0	54	12881	0
	10196	90	40	1468	92	122	4359	0	79	76	647	58	0	54	13606	0
	10197	89	40	1474	92	121	4291	0	79	75	645	57	0	54	13383	0
	10198	104	40	1466	92	123	4345	0	79	76	648	57	0	54	13245	0
	10199	73	40	1466	91	123	4308	0	80	75	650	59	0	54	12616	0
	10200	65	40	1473	91	123	4221	0	80	75	649	61	0	54	12684	0
	10201	72	40	1474	91	123	4118	0	80	75	651	60	0	54	12330	0
	10202	66	40	1474	91	123	4259	0	80	75	650	58	0	54	12585	0
	10203	65	40	1466	91	123	4150	0	80	75	652	59	0	54	12397	0
	10204	66	40	1473	91	123	4288	0	80	75	652	60	0	54	12437	0
	10205	65	40	1478	91	123	4377	0	80	75	650	60	0	54	12624	0
	10206	65	40	1472	91	123	4354	0	80	75	651	58	0	54	12769	0
	10207	65	40	1473	92	123	4294	0	80	75	651	60	0	54	12468	0
	10208	65	40	1466	92	123	4241	0	80	76	653	60	0	54	12686	0
	10209	66	40	1468	92	123	4241	0	80	75	652	60	0	54	12433	0
	10210	65	40	1468	92	123	4206	0	80	75	649	61	0	54	12591	0
	10211	60	40	1466	92	123	4306	0	80	75	651	60	0	54	12810	0
	10212	60	40	1468	92	123	4338	0	80	75	651	59	0	54	12624	0
	10213	66	40	1466	92	123	4400	0	80	75	650	60	0	56	13148	0
	10214	65	40	1466	92	123	4262	0	80	75	650	60	0	56	12585	0
	10215	56	40	1466	92	123	4204	0	80	75	650	60	0	56	12887	0
	10216	73	40	1474	92	123	4332	0	78	74	637	59	0	16	15082	0
	10217	118	37	1470	92	123	4411	0	80	76	653	60	0	56	12541	0
	10218	72	40	1466	92	124	4233	0	80	75	648	60	0	56	12524	0
	10219	61	40	1475	92	124	4317	0	80	75	650	61	0	56	12577	0
	10220	55	40	1466	93	124	4328	0	80	75	652	60	0	56	12591	0
	10221	60	40	1468	92	124	4304	0	80	75	648	60	0	57	12547	0
	10222	66	40	1466	92	124	4309	0	80	75	648	59	0	56	12678	0
	10223	66	40	1325	93	124	4255	0	80	75	650	60	0	56	12749	0
	10224	65	40	1325	93	124	4181	0	80	75	649	58	0	56	12433	0
	10225	66	40	1325	93	124	4258	0	80	75	649	58	0	56	12389	0
	10226	66	40	1325	92	124	4305	0	80	75	648	59	0	56	12628	0
	10227	65	40	1325	93	124	4195	0	80	75	648	59	0	56	12476	0
	10228	60	40	1325	93	123	4183	0	80	75	649	58	0	56	12437	0
	10229	65	40	1466	93	124	4181	0	80	75	651	60	0	56	12771	0
	10230	66	40	1473	93	124	4299	0	80	75	648	60	0	56	12417	0
	10231	60	40	1466	93	124	4144	0	80	75	650	60	0	56	12500	0
	10232	60	40	1325	93	124	4240	0	80	75	650	61	0	56	12454	0
	10233	60	40	1325	93	124	4281	0	80	75	649	58	0	56	12658	0
	10234	60	40	1325	93	124	4293	0	80	75	651	61	0	56	12484	0
	10235	60	40	1326	93	124	4240	0	80	75	649	60	0	56	12547	0
	10236	60	40	1325	93	124	4365	0	80	75	647	62	0	56	12565	0
	10237	55	40	1325	93	124	4293	0	80	75	648	58	0	57	12571	0
	10238	65	40	1466	93	124	4339	0	80	75	650	59	0	65	13136	0
	10239	66	40	1466	93	124	4283	0	80	75	650	60	0	65	13355	0
	10240	59	40	1466	93	124	4212	0	80	75	648	59	0	65	13373	0
	10241	61	40	1466	93	124	4273	0	80	75	651	59	0	55	12824	0
	10242	65	40	1474	93	124	4240	0	80	75	650	58	0	55	13023	0
	10243	65	40	1466	93	124	4243	0	80	75	648	59	0	55	12693	0
	10244	56	40	1472	93	124	4272	0	80	75	650	60	0	55	12526	0
	10245	55	40	1473	93	124	4291	0	80	75	651	58	0	55	12577	0
	10246	65	40	1466	93	124	4295	0	80	75	647	59	0	55	12713	0
	10247	60	40	1466	93	124	4313	0	80	75	650	61	0	55	12808	0
	10248	60	40	1466	94	124	4310	0	80	75	650	58	0	55	12458	0
	10249	66	40	1468	93	124	4308	0	80	75	649	59	0	55	12686	0
	10250	60	40	1475	94	124	4248	0	80	75	649	58	0	56	12235	0
	10251	55	40	1470	93	124	4231	0	80	75	647	59	0	55	12458	0
	10252	65	40	1474	94	124	4334	0	80	75	650	60	0	55	12684	0
	10253	60	40	1466	94	124	4226	0	80	75	650	60	0	55	12729	0
	10254	72	40	1466	94	124	4166	0	80	75	650	58	0	55	12658	0
	10255	60	40	1470	94	124	4347	0	80	75	648	58	0	55	12869	0
	10256	72	40	1468	94	124	4330	0	80	75	648	60	0	55	12923	0
	10257	72	40	1474	94	124	4306	0	80	75	651	60	0	55	12942	0
	10258	66	40	1470	94	124	4243	0	80	75	649	60	0	55	12826	0
	10259	72	40	1466	94	124	4318	0	80	75	649	57	0	55	12879	0
	10260	61	40	1466	94	124	4241	0	80	75	650	60	0	55	12401	0
	10261	59	40	1466	94	124	4200	0	80	75	648	59	0	55	12522	0
	10262	66	40	1466	94	124	4211	0	80	75	647	58	0	55	12585	0
	10263	60	40	1466	94	124	4261	0	80	75	648	60	0	55	12610	0
	10264	66	40	1469	94	124	4331	0	80	75	649	60	0	55	12812	0
	10265	56	40	1474	94	124	4268	0	80	75	648	60	0	55	12342	0
	10266	65	40	1466	94	124	4330	0	80	75	649	57	0	55	12581	0
	10267	65	40	1468	94	124	4201	0	80	75	650	60	0	55	12439	0
	10268	60	40	1466	94	124	4243	0	80	75	647	60	0	55	12415	0
	10269	66	40	1466	94	124	4200	0	80	75	648	60	0	55	12743	0
	10270	65	40	1468	94	124	4233	0	80	75	646	59	0	55	12383	0
	10271	4	22	1469	93	124	4129	0	78	76	646	59	0	0	0	0
	10272	16	17	1466	93	125	4067	0	78	76	646	60	0	0	0	0
	10273	14	13	1473	93	125	4066	0	78	76	645	60	0	0	0	0
	10274	17	14	1466	93	124	4134	0	78	76	646	60	0	0	0	0
	10275	42	22	1470	93	123	4117	0	78	76	646	58	0	0	0	0
	10276	45	29	1473	93	124	4070	0	78	77	649	60	0	0	0	0
	10277	45	35	1466	93	124	4223	0	78	77	648	58	0	0	0	0
	10278	38	39	1472	93	124	4207	0	78	77	647	60	0	0	0	0
	10279	36	41	1466	93	124	4179	0	78	77	646	57	0	0	0	0
	10280	40	42	1472	93	124	4279	0	78	77	647	59	0	0	0	0
	10281	34	42	1466	93	124	4207	0	78	77	648	61	0	0	0	0
