~Version Information
#Data from Mudlog by Horizon Well Logging, Inc., (805)733-0972, horizon@horizon-well-logging.com
#Date Prepared 2020-12-24
#LAS format #2.0
#Generated by HorizonLog v.1.2020.9.0
#DMC Remark
#
#
~Well Information Block
#-------------------------------------------------------------------------
~WELL INFORMATION
#MNEM.UNIT   DATA                        DESCRIPTION
#-------------------------------------------------------------------------
STRT.feet                          130 : Start Depth
STOP.feet                        10987 : Stop Depth
STEP.feet                         1.00 : Depth Step
NULL.                        -999.2500 : Null Value
COMP.                        UtahForge : COMPANY
WELL.                      16A (78)-32 : WELL
FLD.                       Milford, UT : FIELD
LOC.   SEC 32 TWN 26S RNG 09W LAT: 38° : LOCATION
CNTY.                           Beaver : COUNTY
APIN.                                  : API Well Number
UWI.                                   : Unique Well Identifier
DSTRT.                      2020.10.29 : LOG DATE START
DEND.                       2020.12.24 : LOG DATE END
SRVC.       Horizon Well Logging, Inc. : SERVICE COMPANY
#-------------------------------------------------------------------------
~PARAMETER INFORMATION
#MNEM.UNIT   DATA                        DESCRIPTION
#-------------------------------------------------------------------------
FL.       SEC 32 TWN 26S RNG 09W LAT:  : Surface Location
SECT.                                  : Section
TOWN_NO.                               : Township Number
TOWN_DIR.                              : Township Direction
RANG_NO.                               : Range Number
RANGE_DIR.                             : Range Direction
X_LOC.                                 : X Surface Location
Y_LOC.                                 : Y Surface Location
EKB.feet                               : Elevation of Kelly Bushing
EGL.F                                  : Elevation of Ground Level
DMF.                                   : Drilling Measured From
TDD.feet                         10987 : Total Depth - Driller
BLI.feet                         10971 : Bottom Log Interval
TLI.feet                           130 : Top Log Interval
BS.inches                         8.75 : Bit Size
DFT.                              LSND : Drilling Fluid Type
MSS.                                   : Mud Sample Source
LUN.                                32 : Mud Logging Unit Number
R1.                                    : Remark Line 1
R2.                                    : Remark Line 2
R3.                                    : Remark Line 3
R4.                                    : Remark Line 4
R5.                                    : Remark Line 5
R6.                                    : Remark Line 6
R7.                                    : Remark Line 7
R8.                                    : Remark Line 8
R9.                                    : Remark Line 9
R10.                                   : Remark Line 10
#------------------------------------------------------------------
~Curve Information Block
#MNEM.UNIT                               DESCRIPTION
#---- ----                               -----------
DEPTH        .feet                     : Depth
MUDL_ROP     .ft/h                     : Penetration Rate
MUDL_WOB     .1000lbm                  : Weight On Bit
MUDL_CO2     .                         : CO2
MUDL_TEMPIN  .                         : Temperature In
MUDL_TEMPOUT .                         : Temperature Out
MUDL_PP      .psi                      : Pump Pressure
MUDL_SPM1    .1/min                    : Strokes Per Minute Pump #1
MUDL_SPM2    .1/min                    : Strokes Per Minute Pump #2
MUDL_SPM3    .1/min                    : Strokes Per Minute Pump #3
MUDL_FLOWIN  .gal/min                  : Flow In
MUDL_FLOWOUT .percent                  : % Flow Out
MUDL_GAINLOSS.bbls                     : Drilling Fluid Gain/Loss
MUDL_RPM     .rev/min                  : RPM
MUDL_TORQUE  .lb-ft                    : Torque
MUDL_PITVOL  .bbls                     : Pit Volume
#----------------------------------------------------------------------------------------------------------------------------
~A DEPTH  ROP  WOB  CO2  TEMPIN  TEMPOUT  PP  SPM1  SPM2  SPM3  FLOWIN  FLOWOUT%  GAINLOSS  RPM  TORQUE  PITVOL  
# ...
	876	620	20	688	83	87	1876	98	0	0	388	62	20	0	0	470
	877	595	21	688	83	87	1892	98	0	0	383	63	20	0	0	470
	878	465	22	688	83	87	1938	97	0	0	378	63	20	0	0	470
	879	483	21	688	83	87	1938	95	0	0	378	64	20	0	0	470
	880	555	20	688	83	87	1938	95	0	0	378	64	20	0	0	470
	881	641	20	688	83	87	1892	95	0	0	383	64	27	0	0	477
	882	632	20	688	83	86	1907	95	0	0	388	64	27	0	0	477
	883	613	19	688	83	86	1938	95	0	0	393	63	27	0	0	477
	884	592	19	688	83	86	1938	95	0	0	398	62	27	0	0	477
	885	623	21	688	83	86	1938	95	0	0	404	62	27	0	0	477
	886	561	21	688	83	86	1938	95	0	0	404	62	27	0	0	477
	887	551	20	688	83	87	1923	95	0	0	404	62	27	0	0	477
	888	648	20	688	83	87	1876	95	0	0	404	62	27	0	0	477
	889	706	21	688	83	87	1876	95	0	0	398	62	27	0	0	477
	890	586	21	688	83	87	1876	95	0	0	388	63	27	0	0	477
	891	576	20	688	83	87	1907	95	0	0	383	64	27	0	0	477
	892	592	19	688	83	87	1938	95	0	0	383	64	27	0	0	477
	893	617	19	688	83	87	1969	95	0	0	383	65	27	0	0	477
	894	644	18	688	83	87	1969	95	0	0	383	65	20	0	0	470
	895	564	18	688	83	86	1938	94	0	0	383	65	20	0	0	470
	896	567	18	688	83	86	1923	96	0	0	383	64	20	0	0	470
	897	564	20	688	83	87	1923	96	0	0	383	63	20	0	0	470
	898	604	20	688	83	87	1923	96	0	0	383	61	20	0	0	470
	899	663	20	688	83	87	1923	96	0	0	383	60	20	0	0	470
	900	635	19	688	83	87	1907	96	0	0	388	60	27	0	0	477
	901	601	20	688	83	87	1907	96	0	0	393	61	34	0	0	484
	902	635	22	688	83	87	1907	96	0	0	393	61	42	0	0	492
	903	561	22	688	83	87	1907	96	0	0	393	60	42	0	0	492
	904	582	21	688	83	87	1923	96	0	0	398	60	42	0	0	492
	905	641	21	688	83	87	2000	97	0	0	398	61	42	0	0	492
	906	542	21	688	83	87	1969	97	0	0	398	62	34	0	0	484
	907	545	22	688	83	88	1907	97	0	0	398	60	34	0	0	484
	908	663	21	688	83	88	1923	97	0	0	404	58	27	0	0	477
	909	635	21	688	83	88	1953	97	0	0	404	59	34	0	0	484
	910	660	21	688	83	88	1984	96	0	0	409	62	33	72	3598	483
	911	632	21	688	83	87	1879	96	0	0	409	59	33	72	3155	483
	912	629	21	688	84	87	1901	96	0	0	400	61	32	74	3059	482
	913	663	21	688	84	87	1963	95	0	97	806	60	32	76	3442	482
	914	468	23	688	84	87	1859	95	0	97	818	65	32	74	3228	482
	915	552	23	688	84	87	2182	95	0	97	818	58	32	77	2822	482
	916	632	21	688	84	87	2038	95	0	97	818	62	31	74	3197	481
	917	443	19	688	84	87	1917	95	0	97	813	57	31	73	3505	481
	918	632	19	688	84	87	2061	95	0	97	813	59	31	72	3868	481
	919	555	19	688	84	87	1957	95	0	96	798	58	31	76	3240	481
	920	492	21	688	84	87	1975	96	0	97	812	62	30	74	2571	480
	921	535	22	688	84	87	2032	96	0	97	812	60	30	74	2512	480
	922	610	22	688	84	87	1843	96	0	97	812	62	30	79	799	480
	923	491	21	688	84	87	1828	96	0	97	810	62	30	74	2549	480
	924	553	20	688	84	87	2051	96	0	97	806	60	30	76	2387	480
	925	629	20	688	84	87	1939	96	0	97	808	62	29	73	3114	479
	926	632	19	688	84	87	1993	96	0	97	808	62	29	73	2569	479
	927	443	18	688	84	87	2036	96	0	97	807	60	28	76	2083	478
	928	553	16	688	84	87	1883	97	0	98	811	61	28	76	2577	478
	929	491	11	688	84	87	1723	97	0	97	829	53	28	76	1730	478
	930	555	7	688	84	87	1771	97	0	97	829	52	28	74	3325	478
	931	552	15	688	84	87	1817	97	0	98	823	58	27	77	1797	477
	932	489	19	688	84	88	1840	97	0	98	813	56	27	73	3049	477
	933	421	17	688	84	88	1743	97	0	96	813	60	27	73	2435	477
	934	630	14	688	84	87	1896	96	0	97	808	56	27	74	1901	477
	935	634	13	688	84	87	1933	95	0	96	808	62	27	76	2551	477
	936	444	14	688	84	89	2089	95	0	97	808	62	27	76	2342	477
	937	42	25	688	86	89	1775	95	0	96	813	59	25	74	1129	475
	938	23	22	688	86	90	1894	95	0	96	818	65	23	72	2152	473
	939	82	14	688	86	90	1711	96	0	96	823	64	23	75	1420	473
	940	258	12	688	86	91	1696	97	0	97	810	67	23	76	1418	473
	941	370	9	688	86	91	1767	97	0	97	813	67	23	75	1497	473
	942	440	7	688	86	91	2064	96	0	96	813	67	23	76	2976	473
	943	634	9	688	86	91	2092	95	0	96	813	68	23	81	2156	473
	944	424	14	688	86	92	2056	95	0	100	813	76	23	74	2972	473
	945	324	5	688	87	92	1796	95	0	96	813	60	25	73	2284	475
	946	128	10	688	87	92	1788	94	0	97	807	60	25	74	1524	475
	947	138	8	688	87	92	1923	95	0	96	804	61	25	75	2361	475
	948	140	6	688	87	92	1737	95	0	97	804	59	26	74	1844	476
	949	146	7	688	87	92	1740	96	0	97	804	61	26	75	1722	476
	950	163	8	688	87	91	1832	96	0	97	813	60	26	75	1838	476
	951	185	8	688	87	91	1836	96	0	96	813	62	26	74	2140	476
	952	177	11	688	87	91	1806	96	0	97	813	60	25	73	1860	475
	953	184	11	688	87	91	1866	96	0	97	813	59	25	73	2525	475
	954	177	10	688	87	92	1889	97	0	97	808	62	25	74	1325	475
	955	201	9	688	88	92	1739	98	0	96	808	61	25	74	1757	475
	956	180	8	688	88	92	1869	97	0	96	803	59	25	75	1467	475
	957	164	8	688	88	93	1717	97	0	96	803	59	25	74	1220	475
	958	206	7	688	88	93	1704	97	0	96	803	59	6	72	2038	456
	959	99	3	688	88	93	1650	95	0	96	797	61	3	76	1552	453
	960	181	5	688	88	93	1723	96	0	97	803	61	0	81	1732	450
	961	442	10	688	89	93	1857	100	0	96	803	62	0	77	3473	449
	962	233	21	688	89	93	1867	100	0	97	803	60	-4	77	2148	446
	963	128	25	688	90	95	1719	100	0	94	803	59	-7	76	1943	443
	964	181	22	688	90	96	1800	102	0	94	803	60	-10	73	2887	440
	965	192	6	688	90	97	1745	102	0	95	803	60	-24	74	3744	426
	966	206	23	688	90	97	1881	102	0	95	803	60	-27	73	4281	423
	967	234	14	688	90	97	1922	102	0	95	803	60	-28	76	1179	422
	968	221	11	688	89	97	1824	102	0	94	803	60	-30	75	1992	420
	969	305	10	688	90	97	1768	102	0	95	797	59	-31	76	1649	419
	970	370	18	688	90	97	1986	95	0	95	792	58	-32	76	2231	418
	971	250	19	688	90	97	1852	95	0	95	818	59	-33	76	2130	417
	972	615	16	688	90	97	2063	99	0	93	818	58	-34	78	1581	416
	973	877	16	688	89	97	1876	99	0	95	818	58	-34	75	2928	416
	974	137	17	688	90	97	1825	99	0	96	818	57	-36	76	1429	414
	975	207	18	688	90	97	1840	98	0	95	818	59	-36	78	1882	414
	976	443	18	688	90	97	1864	98	0	96	818	60	-37	78	2209	413
	977	465	17	688	90	97	2175	98	0	96	818	59	-37	75	2500	413
	978	443	18	688	90	98	1809	98	0	96	818	60	-37	76	3114	413
	979	553	19	688	90	98	1954	98	0	96	823	56	-37	70	5942	413
	980	687	17	688	90	99	1821	98	0	96	823	57	-37	76	2624	413
	981	551	14	688	90	99	1812	96	0	96	818	58	-38	72	5766	412
	982	634	13	688	90	98	1796	94	0	95	813	60	-38	81	2545	412
	983	58	29	688	90	97	1683	94	0	95	813	60	-39	76	1599	411
	984	56	29	688	90	97	1888	94	0	94	813	59	-39	88	1200	411
	985	634	22	688	90	97	1946	94	0	96	808	62	-40	77	2227	410
	986	444	19	688	90	99	1902	97	0	95	808	62	-40	77	2346	410
	987	3	35	693	95	99	1733	96	0	94	803	60	-51	76	1271	399
	988	5	28	693	96	99	1720	96	0	96	792	60	-48	65	1098	402
	989	181	11	693	96	99	1762	95	0	95	796	59	-48	64	1392	402
	990	295	8	693	96	99	1855	95	0	96	801	60	-48	63	1726	402
	991	355	13	693	96	99	1835	95	0	95	798	56	-48	63	2421	402
	992	368	14	693	96	99	1812	96	0	95	800	59	-48	63	2061	402
	993	354	11	693	96	99	1728	96	0	96	802	58	-48	63	1876	402
	994	369	11	693	96	100	1762	95	0	95	803	62	-48	67	1739	402
	995	369	16	693	96	101	1899	96	0	96	803	59	-48	61	4034	402
	996	4	35	693	97	100	1456	97	0	90	797	59	-15	66	1003	435
	997	72	8	693	97	100	1518	98	0	90	797	58	-14	65	922	436
	998	94	6	693	96	100	1580	98	0	89	797	59	-13	65	1647	437
	999	130	8	693	96	100	1621	98	0	90	797	61	-13	65	1015	437
	1000	201	12	693	96	100	1617	99	0	89	777	60	-12	63	3064	438
	1001	369	19	693	96	100	1625	99	0	91	756	58	-12	63	3110	438
	1002	441	20	693	96	100	1679	97	0	88	720	58	-12	68	2359	438
	1003	164	25	693	96	100	1683	96	0	90	709	60	-12	65	1269	438
	1004	4	9	693	97	100	1303	95	0	85	704	59	24	71	1042	474
	1005	82	19	693	97	101	1318	93	0	84	704	60	23	70	1344	473
	1006	128	11	693	97	102	1359	90	0	84	704	60	23	70	1230	473
	1007	259	7	693	97	102	1429	90	0	84	704	61	22	71	1481	472
	1008	305	6	693	97	102	1388	89	0	84	704	59	22	71	2123	472
	1009	295	8	688	97	102	1566	88	0	85	699	60	22	70	2180	472
	1010	2	2	688	100	102	1412	88	0	86	699	59	6	83	1749	456
	1011	44	4	688	100	102	1444	87	0	84	699	59	7	82	1297	457
	1012	150	7	688	99	104	1445	87	0	84	694	60	7	83	1297	457
	1013	150	11	688	100	104	1419	87	0	84	699	57	7	83	1510	457
	1014	152	10	688	100	105	1347	87	0	85	699	59	7	83	1935	457
	1015	197	10	688	100	105	1408	87	0	85	699	60	7	83	1974	457
	1016	226	10	712	100	105	1481	87	0	85	699	60	7	82	2646	457
	1017	368	11	712	100	105	1495	87	0	85	699	59	7	83	2389	457
	1018	260	10	727	100	105	1486	87	0	85	699	61	7	82	2561	457
