~Version Information
#Data from Mudlog by Horizon Well Logging, Inc., (805)733-0972, horizon@horizon-well-logging.com
#Date Prepared 2020-12-24
#LAS format #2.0
#Generated by HorizonLog v.1.2020.9.0
#DMC Remark
#
#
~Well Information Block
#-------------------------------------------------------------------------
~WELL INFORMATION
#MNEM.UNIT   DATA                        DESCRIPTION
#-------------------------------------------------------------------------
STRT.feet                          130 : Start Depth
STOP.feet                        10987 : Stop Depth
STEP.feet                         1.00 : Depth Step
NULL.                        -999.2500 : Null Value
COMP.                        UtahForge : COMPANY
WELL.                      16A (78)-32 : WELL
FLD.                       Milford, UT : FIELD
LOC.   SEC 32 TWN 26S RNG 09W LAT: 38° : LOCATION
CNTY.                           Beaver : COUNTY
APIN.                                  : API Well Number
UWI.                                   : Unique Well Identifier
DSTRT.                      2020.10.29 : LOG DATE START
DEND.                       2020.12.24 : LOG DATE END
SRVC.       Horizon Well Logging, Inc. : SERVICE COMPANY
#-------------------------------------------------------------------------
~PARAMETER INFORMATION
#MNEM.UNIT   DATA                        DESCRIPTION
#-------------------------------------------------------------------------
FL.       SEC 32 TWN 26S RNG 09W LAT:  : Surface Location
SECT.                                  : Section
TOWN_NO.                               : Township Number
TOWN_DIR.                              : Township Direction
RANG_NO.                               : Range Number
RANGE_DIR.                             : Range Direction
X_LOC.                                 : X Surface Location
Y_LOC.                                 : Y Surface Location
EKB.feet                               : Elevation of Kelly Bushing
EGL.F                                  : Elevation of Ground Level
DMF.                                   : Drilling Measured From
TDD.feet                         10987 : Total Depth - Driller
BLI.feet                         10971 : Bottom Log Interval
TLI.feet                           130 : Top Log Interval
BS.inches                         8.75 : Bit Size
DFT.                              LSND : Drilling Fluid Type
MSS.                                   : Mud Sample Source
LUN.                                32 : Mud Logging Unit Number
R1.                                    : Remark Line 1
R2.                                    : Remark Line 2
R3.                                    : Remark Line 3
R4.                                    : Remark Line 4
R5.                                    : Remark Line 5
R6.                                    : Remark Line 6
R7.                                    : Remark Line 7
R8.                                    : Remark Line 8
R9.                                    : Remark Line 9
R10.                                   : Remark Line 10
#------------------------------------------------------------------
~Curve Information Block
#MNEM.UNIT                               DESCRIPTION
#---- ----                               -----------
DEPTH        .feet                     : Depth
MUDL_ROP     .ft/h                     : Penetration Rate
MUDL_WOB     .1000lbm                  : Weight On Bit
MUDL_CO2     .                         : CO2
MUDL_TEMPIN  .                         : Temperature In
MUDL_TEMPOUT .                         : Temperature Out
MUDL_PP      .psi                      : Pump Pressure
MUDL_SPM1    .1/min                    : Strokes Per Minute Pump #1
MUDL_SPM2    .1/min                    : Strokes Per Minute Pump #2
MUDL_SPM3    .1/min                    : Strokes Per Minute Pump #3
MUDL_FLOWIN  .gal/min                  : Flow In
MUDL_FLOWOUT .percent                  : % Flow Out
MUDL_GAINLOSS.bbls                     : Drilling Fluid Gain/Loss
MUDL_RPM     .rev/min                  : RPM
MUDL_TORQUE  .lb-ft                    : Torque
MUDL_PITVOL  .bbls                     : Pit Volume
#----------------------------------------------------------------------------------------------------------------------------
~A DEPTH  ROP  WOB  CO2  TEMPIN  TEMPOUT  PP  SPM1  SPM2  SPM3  FLOWIN  FLOWOUT%  GAINLOSS  RPM  TORQUE  PITVOL  
# ...
	3736	221	33	752	144	152	2149	88	0	88	734	76	21	75	5958	471
	3737	252	35	752	144	152	2100	88	0	88	736	76	21	75	5174	471
	3738	260	27	752	144	152	1935	87	0	87	730	76	21	75	5146	471
	3739	260	24	752	144	152	1891	87	0	87	732	76	21	75	5166	471
	3740	257	28	752	144	152	1995	87	0	87	731	76	20	75	5249	470
	3741	257	33	752	144	152	2087	88	0	88	734	75	21	75	5537	471
	3742	233	36	752	144	152	2140	88	0	88	736	76	20	74	6288	470
	3743	246	38	752	144	153	2146	88	0	88	739	76	20	74	6237	470
	3744	261	39	752	145	153	2124	88	0	88	740	76	21	75	5265	471
	3745	75	40	752	145	153	1917	88	0	88	737	76	20	75	4638	470
	3746	67	40	752	145	153	1985	88	0	88	736	76	22	75	4670	472
	3747	62	40	752	145	153	1997	88	0	88	734	76	20	74	4897	470
	3748	76	40	752	145	153	1989	88	0	88	735	76	21	74	5146	471
	3749	62	40	752	145	153	2029	88	0	88	737	76	20	75	5334	470
	3750	81	40	752	145	153	2121	88	0	88	736	76	20	75	5397	470
	3751	79	40	752	145	153	2003	88	0	88	734	76	20	75	4624	470
	3752	62	40	752	145	153	1973	87	0	87	733	76	22	75	4715	472
	3753	58	40	752	145	152	2033	87	0	87	732	76	21	75	4449	471
	3754	72	40	752	145	152	2022	87	0	87	733	76	21	75	4899	471
	3755	83	40	752	145	153	1968	87	0	87	731	76	19	75	5134	469
	3756	74	40	752	145	153	2047	87	0	87	731	76	21	75	4893	471
	3757	165	40	752	145	153	2027	89	0	89	745	76	20	75	5533	470
	3758	261	37	752	145	153	2222	88	0	88	742	76	19	75	4864	469
	3759	164	39	752	145	153	2184	87	0	87	730	76	19	75	5901	469
	3760	197	40	752	145	152	2213	88	0	88	735	76	20	72	6515	470
	3761	164	40	752	145	152	2257	88	0	88	740	76	20	74	6272	470
	3762	205	39	752	145	152	2257	88	0	88	738	75	21	72	6359	471
	3763	221	33	752	145	152	2074	88	0	88	737	76	20	75	5411	470
	3764	221	32	752	145	152	2128	88	0	88	737	76	20	75	6027	470
	3765	266	33	752	145	152	2017	88	0	88	738	76	19	75	5711	469
	3766	259	34	752	145	152	2181	88	0	88	736	76	19	74	6359	469
	3767	296	38	752	145	152	2356	88	0	88	738	76	19	71	6610	469
	3768	261	38	752	145	152	2105	89	0	89	749	76	19	75	6251	469
	3769	251	40	752	145	152	2202	88	0	88	737	76	19	75	5678	469
	3770	313	40	752	145	152	2070	89	0	89	744	77	19	68	6494	469
	3771	246	38	752	145	152	2159	89	0	89	743	77	20	74	5640	470
	3772	369	37	752	145	152	2241	88	0	88	738	76	20	73	6322	470
	3773	313	38	752	145	152	2036	88	0	88	736	76	21	74	6369	471
	3774	246	39	752	145	152	2247	88	0	88	736	76	20	72	6577	470
	3775	368	39	752	145	152	2171	87	0	87	733	76	22	72	6494	472
	3776	304	37	752	145	152	2217	88	0	88	736	76	21	75	5545	471
	3777	260	36	752	145	153	2106	88	0	88	740	75	21	75	5818	471
	3778	164	39	752	145	153	2076	88	0	88	736	77	21	75	5676	471
	3779	251	40	752	145	153	2064	88	0	88	739	75	21	75	6262	471
	3780	295	40	752	145	153	2318	88	0	88	740	76	20	73	6513	470
	3781	316	36	752	145	153	2099	88	0	88	739	76	20	75	5425	470
	3782	303	32	752	145	153	2146	87	0	87	733	76	21	75	5506	471
	3783	296	33	752	145	153	2090	88	0	88	733	76	22	74	6393	472
	3784	442	35	752	145	153	2292	88	0	88	737	76	20	69	6646	470
	3785	370	38	752	145	153	2183	88	0	88	739	76	21	68	6780	471
	3786	285	38	752	145	153	2263	88	0	88	738	76	21	75	6041	471
	3787	491	38	752	145	153	2190	87	0	87	733	76	21	70	6521	471
	3788	440	39	752	145	153	2252	88	0	88	737	76	20	68	6764	470
	3789	368	39	752	145	153	2145	88	0	88	740	76	20	73	6373	470
	3790	465	40	752	145	153	2319	88	0	88	734	76	20	67	6772	470
	3791	341	40	752	145	153	2233	87	0	87	733	76	20	60	6760	470
	3792	369	40	752	145	153	2338	89	0	89	743	76	20	67	6758	470
	3793	369	40	752	145	153	2158	88	0	88	738	76	19	66	6768	469
	3794	368	40	752	145	153	2226	88	0	88	742	77	19	57	6778	469
	3795	340	40	752	145	153	2199	88	0	88	737	77	19	71	6626	469
	3796	316	40	752	145	153	2342	88	0	88	735	76	17	75	4277	467
	3797	296	40	752	145	153	2196	89	0	89	748	77	18	75	4567	468
	3798	261	39	752	145	153	2235	88	0	88	736	77	17	75	5035	467
	3799	420	40	752	145	153	2136	89	0	89	744	76	15	75	4725	465
	3800	370	40	752	145	154	2290	88	0	88	742	76	16	75	4777	466
	3801	72	30	752	145	153	2072	88	0	88	740	76	16	74	4630	466
	3802	72	30	752	145	153	2021	88	0	88	742	76	18	76	3996	468
	3803	58	30	752	145	154	2036	88	0	88	737	76	16	75	4366	466
	3804	55	30	752	145	154	2076	88	0	88	742	76	18	40	4166	468
	3805	164	34	752	145	154	2226	88	0	88	734	76	17	41	5235	467
	3806	159	37	752	145	154	2203	88	0	88	740	76	17	41	4484	467
	3807	209	39	752	145	154	2321	88	0	88	744	76	19	41	5772	469
	3808	148	40	752	145	154	2088	89	0	89	744	76	20	41	4733	470
	3809	140	40	752	145	154	2222	88	0	88	740	76	17	41	4802	467
	3810	147	40	752	145	154	2197	88	0	88	735	77	16	41	5195	466
	3811	132	40	752	145	154	2206	88	0	88	742	76	18	40	4893	468
	3812	120	40	752	145	154	2177	88	0	88	739	77	16	41	4816	466
	3813	136	40	752	145	154	2224	88	0	88	739	76	17	41	4599	467
	3814	123	40	752	145	154	2210	88	0	88	739	77	16	40	4607	466
	3815	139	40	752	145	154	2131	88	0	88	737	76	16	40	4676	466
	3816	160	38	752	145	154	2188	89	0	89	744	76	16	41	4970	466
	3817	185	40	752	145	154	2171	89	0	89	744	76	16	41	5107	466
	3818	163	40	752	145	154	2218	88	0	88	738	76	15	41	5304	465
	3819	222	39	752	145	154	2290	90	0	90	751	76	15	41	5389	465
	3820	201	37	752	145	154	2141	89	0	89	746	77	13	41	5816	463
	3821	179	39	752	145	154	2202	88	0	88	740	76	15	41	4781	465
	3822	222	39	752	145	154	2254	88	0	88	739	76	10	40	5723	460
	3823	226	40	752	145	154	2301	89	0	89	744	76	13	41	5567	463
	3824	260	40	752	145	154	2235	89	0	89	745	77	13	41	5836	463
	3825	233	40	752	145	154	2300	89	0	89	748	77	12	41	5593	462
	3826	193	40	752	145	154	2248	89	0	89	743	77	12	41	5583	462
	3827	233	40	752	145	154	2480	89	0	89	744	77	12	41	5557	462
	3828	225	40	752	145	154	2269	88	0	88	740	77	12	41	4881	462
	3829	163	40	752	145	154	2233	88	0	88	742	77	14	41	4704	464
	3830	164	40	752	145	154	2125	89	0	89	744	76	13	41	4617	463
	3831	151	40	752	145	154	2142	88	0	88	736	77	13	41	5243	463
	3832	220	40	752	145	154	2229	89	0	89	747	76	15	40	5952	465
	3833	316	40	752	145	154	2249	89	0	89	747	76	14	41	5853	464
	3834	193	40	752	145	154	2381	88	0	88	735	76	13	40	6551	463
	3835	232	40	752	145	154	2195	89	0	89	745	76	15	40	4599	465
	3836	166	40	752	145	154	2297	88	0	88	739	76	14	40	5136	464
	3837	221	40	752	145	154	2276	88	0	88	737	76	15	41	6488	465
	3838	260	39	752	145	154	2230	89	0	89	744	77	14	41	4670	464
	3839	295	37	752	145	154	2218	89	0	89	748	76	13	41	4650	463
	3840	317	34	752	145	154	2249	88	0	88	740	76	12	40	4257	462
	3841	295	32	752	145	154	2197	88	0	88	742	76	15	41	4937	465
	3842	282	37	752	145	154	2322	88	0	88	742	77	15	41	5367	465
	3843	274	39	752	145	154	2236	88	0	88	742	76	13	41	5158	463
	3844	260	16	752	145	153	1952	87	0	87	725	75	14	38	3854	464
	3845	251	26	752	145	154	2094	87	0	87	732	76	12	39	3496	462
	3846	238	31	752	145	155	2158	87	0	87	729	76	13	39	5209	463
	3847	228	36	752	145	155	2210	88	0	88	742	76	13	39	5237	463
	3848	177	40	752	145	155	2228	87	0	87	729	75	13	39	5557	463
	3849	202	40	752	145	155	2374	87	0	87	733	76	13	40	4909	463
	3850	261	36	752	145	155	2178	88	0	88	734	76	13	39	4551	463
	3851	259	37	752	145	151	2272	87	0	87	727	76	13	39	5002	463
	3852	282	38	752	145	155	2261	87	0	87	731	76	14	39	5970	464
	3853	316	35	752	145	154	2174	88	0	88	737	76	13	39	4383	463
	3854	252	36	752	145	153	2198	87	0	87	731	76	14	39	4737	464
	3855	138	40	752	145	153	2269	87	0	87	730	76	14	39	5041	464
	3856	227	40	752	145	153	2210	88	0	88	735	76	13	39	4707	463
	3857	177	40	752	145	153	2263	87	0	87	729	76	14	39	5020	464
	3858	164	40	752	145	153	2172	87	0	87	730	76	14	39	4480	464
	3859	132	40	752	145	153	2094	87	0	87	730	76	13	39	3745	463
	3860	111	40	752	145	153	2181	86	0	86	724	76	13	38	3905	463
	3861	112	40	752	145	153	2051	87	0	87	730	76	12	38	3660	462
	3862	101	40	752	145	153	2046	87	0	87	727	76	12	39	3603	462
	3863	99	40	752	145	153	2207	87	0	87	729	75	14	39	3643	464
	3864	131	40	752	145	153	2183	87	0	87	731	75	14	38	4146	464
	3865	118	40	752	145	153	2188	87	0	87	725	75	11	38	4455	461
	3866	169	40	752	145	153	2278	88	0	88	735	75	14	38	4261	464
	3867	223	39	752	145	153	2286	87	0	87	733	76	15	38	4500	465
	3868	259	39	752	145	153	2265	88	0	88	739	76	15	39	4733	465
	3869	113	40	752	145	153	2142	86	0	86	722	75	14	38	4595	464
