~Version Information
#Data from Mudlog by Horizon Well Logging, Inc., (805)733-0972, horizon@horizon-well-logging.com
#Date Prepared 2020-12-24
#LAS format #2.0
#Generated by HorizonLog v.1.2020.9.0
#DMC Remark
#
#
~Well Information Block
#-------------------------------------------------------------------------
~WELL INFORMATION
#MNEM.UNIT   DATA                        DESCRIPTION
#-------------------------------------------------------------------------
STRT.feet                          130 : Start Depth
STOP.feet                        10987 : Stop Depth
STEP.feet                         1.00 : Depth Step
NULL.                        -999.2500 : Null Value
COMP.                        UtahForge : COMPANY
WELL.                      16A (78)-32 : WELL
FLD.                       Milford, UT : FIELD
LOC.   SEC 32 TWN 26S RNG 09W LAT: 38° : LOCATION
CNTY.                           Beaver : COUNTY
APIN.                                  : API Well Number
UWI.                                   : Unique Well Identifier
DSTRT.                      2020.10.29 : LOG DATE START
DEND.                       2020.12.24 : LOG DATE END
SRVC.       Horizon Well Logging, Inc. : SERVICE COMPANY
#-------------------------------------------------------------------------
~PARAMETER INFORMATION
#MNEM.UNIT   DATA                        DESCRIPTION
#-------------------------------------------------------------------------
FL.       SEC 32 TWN 26S RNG 09W LAT:  : Surface Location
SECT.                                  : Section
TOWN_NO.                               : Township Number
TOWN_DIR.                              : Township Direction
RANG_NO.                               : Range Number
RANGE_DIR.                             : Range Direction
X_LOC.                                 : X Surface Location
Y_LOC.                                 : Y Surface Location
EKB.feet                               : Elevation of Kelly Bushing
EGL.F                                  : Elevation of Ground Level
DMF.                                   : Drilling Measured From
TDD.feet                         10987 : Total Depth - Driller
BLI.feet                         10971 : Bottom Log Interval
TLI.feet                           130 : Top Log Interval
BS.inches                         8.75 : Bit Size
DFT.                              LSND : Drilling Fluid Type
MSS.                                   : Mud Sample Source
LUN.                                32 : Mud Logging Unit Number
R1.                                    : Remark Line 1
R2.                                    : Remark Line 2
R3.                                    : Remark Line 3
R4.                                    : Remark Line 4
R5.                                    : Remark Line 5
R6.                                    : Remark Line 6
R7.                                    : Remark Line 7
R8.                                    : Remark Line 8
R9.                                    : Remark Line 9
R10.                                   : Remark Line 10
#------------------------------------------------------------------
~Curve Information Block
#MNEM.UNIT                               DESCRIPTION
#---- ----                               -----------
DEPTH        .feet                     : Depth
MUDL_ROP     .ft/h                     : Penetration Rate
MUDL_WOB     .1000lbm                  : Weight On Bit
MUDL_CO2     .                         : CO2
MUDL_TEMPIN  .                         : Temperature In
MUDL_TEMPOUT .                         : Temperature Out
MUDL_PP      .psi                      : Pump Pressure
MUDL_SPM1    .1/min                    : Strokes Per Minute Pump #1
MUDL_SPM2    .1/min                    : Strokes Per Minute Pump #2
MUDL_SPM3    .1/min                    : Strokes Per Minute Pump #3
MUDL_FLOWIN  .gal/min                  : Flow In
MUDL_FLOWOUT .percent                  : % Flow Out
MUDL_GAINLOSS.bbls                     : Drilling Fluid Gain/Loss
MUDL_RPM     .rev/min                  : RPM
MUDL_TORQUE  .lb-ft                    : Torque
MUDL_PITVOL  .bbls                     : Pit Volume
#----------------------------------------------------------------------------------------------------------------------------
~A DEPTH  ROP  WOB  CO2  TEMPIN  TEMPOUT  PP  SPM1  SPM2  SPM3  FLOWIN  FLOWOUT%  GAINLOSS  RPM  TORQUE  PITVOL  
# ...
	6449	53	39	1435	124	139	3102	66	0	67	556	60	32	52	5387	482
	6450	46	39	1436	124	139	3157	66	0	67	559	58	33	51	5440	483
	6451	53	39	1440	124	140	3148	66	0	67	558	57	35	51	5340	485
	6452	33	39	1436	125	141	3095	65	0	67	555	58	32	50	5476	482
	6453	34	39	1435	125	141	3096	66	0	67	557	58	33	50	5472	483
	6454	35	39	1431	125	141	2997	65	0	67	553	58	32	50	5587	482
	6455	31	39	1428	125	141	3070	66	0	66	553	57	32	51	5413	482
	6456	34	39	1439	125	141	3025	66	0	67	559	58	31	50	5425	481
	6457	35	39	1428	125	142	3064	66	0	67	554	58	32	50	5753	482
	6458	30	39	1436	126	142	3144	66	0	67	555	59	31	50	5395	481
	6459	36	39	1436	126	142	3047	65	0	66	551	56	31	50	5662	482
	6460	37	39	1431	126	142	3109	65	0	66	550	58	31	50	5755	481
	6461	36	39	1440	126	144	3146	66	0	67	555	60	30	50	5460	481
	6462	29	34	1440	127	143	2847	65	0	66	549	57	31	0	0	481
	6463	25	33	1436	127	143	3097	66	0	67	555	61	31	0	0	481
	6464	17	39	1444	127	144	3076	66	0	66	553	58	32	0	0	482
	6465	20	35	1437	127	144	3127	66	0	67	554	58	31	0	0	482
	6466	21	16	1436	127	144	2958	66	0	67	554	57	31	0	0	481
	6467	32	29	1430	128	144	3027	65	0	66	550	58	31	0	0	481
	6468	26	43	1436	128	144	3050	66	0	67	556	58	30	0	0	480
	6469	20	41	1435	128	145	3126	66	0	67	557	58	32	0	0	482
	6470	21	38	1431	128	145	3058	66	0	67	555	61	32	0	0	482
	6471	22	32	1436	128	145	3091	66	0	67	555	59	32	0	0	482
	6472	24	33	1436	129	144	3110	65	0	67	553	56	32	0	0	482
	6473	29	37	1434	129	145	3107	65	0	66	552	57	31	0	0	481
	6474	30	37	1427	129	145	3126	66	0	68	560	59	32	0	0	482
	6475	30	37	1427	129	145	3165	66	0	67	555	58	32	0	0	482
	6476	29	37	1431	129	144	3206	66	0	67	556	58	32	0	0	482
	6477	29	36	1435	130	145	3080	66	0	67	556	58	32	0	0	482
	6478	30	36	1440	130	146	3148	66	0	67	556	58	33	0	0	483
	6479	35	38	1436	130	145	3168	66	0	67	556	58	32	0	0	482
	6480	35	39	1436	130	145	3204	65	0	66	550	59	32	0	0	482
	6481	35	38	1437	130	145	3120	66	0	67	556	57	32	0	0	481
	6482	34	31	1436	130	146	3146	66	0	66	553	59	33	0	0	483
	6483	35	30	1427	130	145	3062	66	0	66	552	58	32	0	0	482
	6484	38	32	1440	130	145	3184	66	0	66	552	58	32	0	0	481
	6485	42	35	1435	131	145	3163	66	0	67	556	57	32	0	0	482
	6486	45	37	1437	131	146	3153	66	0	67	557	58	32	0	0	481
	6487	45	38	1432	131	146	3148	66	0	67	555	58	32	0	0	483
	6488	45	37	1436	130	145	3137	66	0	67	557	59	31	0	0	481
	6489	44	38	1568	131	145	3175	65	0	66	552	58	31	0	0	481
	6490	45	38	1431	130	145	3178	66	0	67	556	59	31	0	0	481
	6491	45	41	1436	131	146	3228	66	0	67	558	58	32	0	0	482
	6492	37	42	1435	130	147	3210	65	0	67	553	58	32	0	0	482
	6493	38	42	1430	130	146	3191	66	0	67	554	57	32	0	0	482
	6494	42	42	1568	130	146	3258	66	0	67	554	58	32	0	0	482
	6495	38	40	1568	130	146	3252	66	0	67	553	60	31	0	0	481
	6496	37	40	1568	130	147	3235	66	0	67	556	58	31	0	0	482
	6497	38	40	1568	131	147	3244	65	0	66	552	56	31	0	0	481
	6498	35	42	1568	131	146	3188	66	0	67	556	56	31	0	0	481
	6499	33	41	1568	131	147	3269	66	0	67	556	59	31	0	0	481
	6500	33	42	1431	131	146	3284	66	0	67	556	57	31	0	0	481
	6501	33	41	1431	132	147	3088	66	0	67	556	59	31	0	0	481
	6502	33	43	1427	132	147	3186	65	0	67	553	57	30	0	0	481
	6503	33	42	1287	132	148	3148	65	0	66	552	58	31	0	0	480
	6504	17	39	1427	132	148	3178	66	0	67	557	58	31	0	0	481
	6505	19	46	1436	132	148	2983	65	0	66	552	58	31	0	0	481
	6506	5	44	1430	132	148	2925	65	0	66	551	56	31	0	0	481
	6507	12	44	1433	133	148	2946	65	0	66	549	59	30	0	0	480
	6508	22	40	1432	127	147	3178	69	0	69	579	58	-20	26	4998	430
	6509	25	40	1568	127	147	3178	69	0	70	579	59	-23	26	4715	427
	6510	25	40	1568	128	148	3263	69	0	70	582	59	-11	26	4715	440
	6511	5	27	1564	129	148	2966	66	0	68	562	58	-8	27	4306	444
	6512	35	40	1568	129	148	3045	66	0	68	561	58	4	27	4484	454
	6513	24	40	1568	129	148	3068	66	0	68	560	60	-7	55	5391	442
	6514	30	40	1568	130	148	3107	66	0	68	561	58	-10	59	5306	439
	6515	30	40	1568	130	148	3158	65	0	68	561	58	-13	59	5278	438
	6516	32	39	1568	130	148	2907	67	0	66	556	58	-12	59	5168	439
	6517	29	40	1568	130	149	3160	67	0	68	560	58	-12	59	5267	438
	6518	29	40	1568	131	149	3026	66	0	69	563	59	-18	59	5259	432
	6519	32	40	1568	131	149	3010	66	0	68	561	58	-16	59	4988	433
	6520	29	41	1568	131	149	2997	66	0	69	562	59	-21	59	5130	429
	6521	23	36	1568	132	149	3019	66	0	68	561	58	-22	59	5640	428
	6522	20	32	1568	132	149	2983	66	0	70	568	59	-21	59	5472	428
	6523	20	31	1568	133	149	3000	65	0	68	559	58	-25	58	5458	425
	6524	20	31	1568	133	149	2970	66	0	68	560	58	-54	59	5478	396
	6525	20	30	1566	133	149	2961	65	0	68	558	58	-63	59	5296	386
	6526	37	40	1577	133	149	3003	66	0	69	563	59	-66	59	5369	384
	6527	40	5	1287	115	140	3008	67	0	66	557	58	-24	0	0	426
	6528	33	6	1290	115	140	3078	67	0	67	559	58	-23	0	0	427
	6529	37	6	1287	116	142	2998	67	0	67	559	58	-22	0	0	427
	6530	41	7	1287	117	142	3197	67	0	67	561	64	-19	0	0	432
	6531	49	9	1287	117	142	3178	67	0	67	562	59	-21	0	0	429
	6532	54	12	1287	117	142	3195	67	0	67	562	58	-20	0	0	430
	6533	64	14	1287	118	142	3187	67	0	67	561	55	-18	0	0	431
	6534	73	17	1436	118	144	3243	67	0	67	562	56	-19	0	0	431
	6535	72	20	1436	118	144	3263	67	0	67	560	58	-20	0	0	430
	6536	81	23	1428	118	145	3260	67	0	67	560	57	-19	0	0	431
	6537	91	26	1440	119	145	3327	67	0	67	564	58	-18	0	0	432
	6538	81	28	1287	119	145	3269	67	0	67	564	58	-21	0	0	428
	6539	82	31	1287	119	145	3411	67	0	67	562	59	-19	0	0	429
	6540	43	37	1294	125	145	3297	69	0	68	574	58	-16	0	0	432
	6541	43	37	1287	125	144	3404	69	0	68	574	58	-18	0	0	432
	6542	46	37	1296	125	145	3297	68	0	68	573	58	-15	0	0	434
	6543	58	40	1288	127	144	3284	68	0	68	572	58	-18	0	0	432
	6544	62	43	1287	124	144	3355	68	0	68	572	60	-14	0	0	436
	6545	53	41	1287	122	144	3512	68	0	68	573	59	-16	0	0	435
	6546	59	41	1294	122	144	3446	69	0	69	575	59	-14	0	0	435
	6547	55	40	1287	123	144	3367	69	0	69	576	58	-15	0	0	437
	6548	60	42	1436	125	144	3326	69	0	68	573	59	-14	0	0	436
	6549	58	43	1436	124	144	3359	69	0	68	574	58	-15	0	0	435
	6550	60	44	1290	124	144	3386	68	0	68	572	59	-13	0	0	437
	6551	60	44	1287	124	144	3386	69	0	68	573	60	-11	0	0	439
	6552	59	44	1296	125	145	3325	69	0	68	574	59	-13	0	0	437
	6553	58	45	1290	125	145	3415	68	0	68	572	56	-10	0	0	440
	6554	56	44	1287	125	145	3314	68	0	68	573	56	-11	0	0	438
	6555	56	44	1287	125	145	3337	69	0	68	574	60	-9	0	0	441
	6556	59	46	1296	126	145	3344	69	0	68	575	58	-10	0	0	440
	6557	54	45	1297	127	145	3446	68	0	68	573	60	-8	0	0	442
	6558	56	45	1436	127	145	3332	69	0	68	574	60	-9	0	0	441
	6559	55	45	1440	127	145	3411	69	0	69	576	58	-8	0	0	442
	6560	54	45	1435	127	145	3402	68	0	68	573	59	-7	0	0	443
	6561	56	46	1436	127	145	3414	68	0	68	572	58	-6	0	0	444
	6562	53	46	1440	127	145	3370	68	0	68	572	60	-6	0	0	444
	6563	55	46	1436	127	145	3316	69	0	68	574	59	-5	0	0	445
	6564	54	45	1440	127	145	3398	69	0	69	575	59	-6	0	0	444
	6565	55	45	1440	127	145	3384	68	0	68	574	58	-6	0	0	444
	6566	56	45	1440	127	146	3394	69	0	68	574	59	-4	0	0	446
	6567	55	46	1440	128	146	3436	68	0	68	573	59	-4	0	0	446
	6568	55	47	1436	128	146	3408	68	0	68	574	56	-5	0	0	445
	6569	54	47	1440	128	146	3400	68	0	68	572	57	-4	0	0	446
	6570	56	47	1440	128	145	3389	68	0	69	574	57	-5	0	0	445
	6571	53	47	1440	128	145	3325	68	0	68	572	61	-5	0	0	445
	6572	56	47	1440	128	145	3332	68	0	68	572	58	-3	0	0	447
	6573	55	48	1440	128	145	3513	68	0	68	573	58	-3	0	0	447
	6574	53	47	1440	129	146	3403	68	0	68	571	60	-5	0	0	445
	6575	46	48	1440	129	146	3294	68	0	69	574	58	-7	0	0	443
	6576	48	48	1440	129	146	3396	68	0	68	569	60	-3	0	0	447
	6577	48	48	1440	129	146	3431	68	0	68	572	58	-4	0	0	447
	6578	46	47	1440	129	146	3466	68	0	68	571	58	-3	0	0	447
	6579	44	45	1440	129	146	3377	68	0	68	572	59	-4	0	0	446
	6580	54	47	1440	129	146	3340	68	0	68	570	58	-3	0	0	447
	6581	55	47	1440	129	146	3352	68	0	68	572	56	-2	0	0	448
	6582	53	49	1440	129	146	3364	68	0	68	574	59	-3	0	0	447
	6583	45	48	1440	129	146	3400	68	0	68	573	58	-3	0	0	447
	6584	46	48	1440	129	146	3310	68	0	68	571	58	-2	0	0	448
	6585	38	45	1440	129	147	3340	68	0	68	571	58	-2	0	0	448
	6586	37	45	1440	129	147	3284	68	0	68	572	59	-1	0	0	449
	6587	36	35	1440	130	147	3234	68	0	68	570	61	2	49	5533	452
	6588	37	38	1440	130	147	3271	68	0	69	575	58	2	49	5790	452
