~Version Information
#Data from Mudlog by Horizon Well Logging, Inc., (805)733-0972, horizon@horizon-well-logging.com
#Date Prepared 2020-12-24
#LAS format #2.0
#Generated by HorizonLog v.1.2020.9.0
#DMC Remark
#
#
~Well Information Block
#-------------------------------------------------------------------------
~WELL INFORMATION
#MNEM.UNIT   DATA                        DESCRIPTION
#-------------------------------------------------------------------------
STRT.feet                          130 : Start Depth
STOP.feet                        10987 : Stop Depth
STEP.feet                         1.00 : Depth Step
NULL.                        -999.2500 : Null Value
COMP.                        UtahForge : COMPANY
WELL.                      16A (78)-32 : WELL
FLD.                       Milford, UT : FIELD
LOC.   SEC 32 TWN 26S RNG 09W LAT: 38° : LOCATION
CNTY.                           Beaver : COUNTY
APIN.                                  : API Well Number
UWI.                                   : Unique Well Identifier
DSTRT.                      2020.10.29 : LOG DATE START
DEND.                       2020.12.24 : LOG DATE END
SRVC.       Horizon Well Logging, Inc. : SERVICE COMPANY
#-------------------------------------------------------------------------
~PARAMETER INFORMATION
#MNEM.UNIT   DATA                        DESCRIPTION
#-------------------------------------------------------------------------
FL.       SEC 32 TWN 26S RNG 09W LAT:  : Surface Location
SECT.                                  : Section
TOWN_NO.                               : Township Number
TOWN_DIR.                              : Township Direction
RANG_NO.                               : Range Number
RANGE_DIR.                             : Range Direction
X_LOC.                                 : X Surface Location
Y_LOC.                                 : Y Surface Location
EKB.feet                               : Elevation of Kelly Bushing
EGL.F                                  : Elevation of Ground Level
DMF.                                   : Drilling Measured From
TDD.feet                         10987 : Total Depth - Driller
BLI.feet                         10971 : Bottom Log Interval
TLI.feet                           130 : Top Log Interval
BS.inches                         8.75 : Bit Size
DFT.                              LSND : Drilling Fluid Type
MSS.                                   : Mud Sample Source
LUN.                                32 : Mud Logging Unit Number
R1.                                    : Remark Line 1
R2.                                    : Remark Line 2
R3.                                    : Remark Line 3
R4.                                    : Remark Line 4
R5.                                    : Remark Line 5
R6.                                    : Remark Line 6
R7.                                    : Remark Line 7
R8.                                    : Remark Line 8
R9.                                    : Remark Line 9
R10.                                   : Remark Line 10
#------------------------------------------------------------------
~Curve Information Block
#MNEM.UNIT                               DESCRIPTION
#---- ----                               -----------
DEPTH        .feet                     : Depth
MUDL_ROP     .ft/h                     : Penetration Rate
MUDL_WOB     .1000lbm                  : Weight On Bit
MUDL_CO2     .                         : CO2
MUDL_TEMPIN  .                         : Temperature In
MUDL_TEMPOUT .                         : Temperature Out
MUDL_PP      .psi                      : Pump Pressure
MUDL_SPM1    .1/min                    : Strokes Per Minute Pump #1
MUDL_SPM2    .1/min                    : Strokes Per Minute Pump #2
MUDL_SPM3    .1/min                    : Strokes Per Minute Pump #3
MUDL_FLOWIN  .gal/min                  : Flow In
MUDL_FLOWOUT .percent                  : % Flow Out
MUDL_GAINLOSS.bbls                     : Drilling Fluid Gain/Loss
MUDL_RPM     .rev/min                  : RPM
MUDL_TORQUE  .lb-ft                    : Torque
MUDL_PITVOL  .bbls                     : Pit Volume
#----------------------------------------------------------------------------------------------------------------------------
~A DEPTH  ROP  WOB  CO2  TEMPIN  TEMPOUT  PP  SPM1  SPM2  SPM3  FLOWIN  FLOWOUT%  GAINLOSS  RPM  TORQUE  PITVOL  
# ...
	3058	56	38	747	137	145	2043	89	0	89	743	76	-3	66	4692	447
	3059	94	36	747	137	145	2190	89	0	89	743	76	-23	66	4757	449
	3060	101	32	747	137	145	2112	89	0	89	743	77	-2	66	5174	448
	3061	101	30	747	137	145	2177	89	0	89	743	76	0	66	4285	450
	3062	100	33	747	137	145	2116	88	0	88	738	75	1	66	5543	451
	3063	111	30	747	137	145	1983	88	0	88	742	76	0	66	4773	450
	3064	121	29	747	137	145	2040	88	0	88	737	76	0	66	5051	450
	3065	113	33	747	137	145	2114	89	0	89	743	76	1	66	4962	451
	3066	112	37	747	137	145	2143	89	0	89	744	75	0	66	5780	449
	3067	82	37	747	137	145	2135	88	0	88	735	76	1	66	5035	451
	3068	72	37	747	137	145	2108	88	0	88	739	76	0	66	4909	450
	3069	67	37	747	137	145	2123	89	0	89	743	75	0	66	4532	449
	3070	60	33	747	137	145	2067	88	0	88	739	75	1	66	4210	451
	3071	70	36	747	137	145	1939	88	0	88	738	76	3	66	4136	453
	3072	69	37	747	137	145	2087	88	0	88	737	76	0	66	5089	450
	3073	70	31	747	137	145	2078	88	0	88	737	76	1	66	4528	451
	3074	90	35	747	137	145	2160	88	0	88	740	76	0	66	4927	450
	3075	52	36	747	137	145	2051	88	0	88	735	75	0	66	4291	450
	3076	38	32	747	138	145	1970	88	0	88	740	75	0	66	4166	449
	3077	44	37	747	138	145	2034	89	0	89	739	76	3	66	4318	453
	3078	50	37	747	138	145	2124	88	0	88	740	75	0	66	4472	450
	3079	45	38	747	138	145	1918	88	0	88	737	75	0	66	4233	450
	3080	46	34	747	138	145	2013	88	0	88	739	75	2	66	4407	452
	3081	67	32	747	138	145	1972	88	0	88	739	75	1	66	4684	451
	3082	58	35	747	138	145	2177	89	0	89	743	76	1	66	4534	451
	3083	85	34	747	138	145	2134	89	0	89	743	76	1	66	4933	451
	3084	79	35	747	138	145	2056	88	0	88	739	75	0	66	5136	450
	3085	90	35	747	138	145	2013	89	0	89	745	76	1	66	4828	451
	3086	113	36	747	138	145	2216	89	0	89	745	75	0	66	5294	449
	3087	94	37	747	138	145	2196	88	0	88	742	76	0	65	5938	450
	3088	85	37	747	138	145	2138	89	0	89	743	77	0	66	5028	450
	3089	82	37	747	138	145	2071	88	0	88	742	76	0	66	5093	450
	3090	108	25	747	138	145	2117	87	0	87	732	75	0	66	4658	450
	3091	94	37	747	138	145	2028	88	0	88	740	76	2	65	4798	452
	3092	64	32	747	138	145	2060	88	0	88	742	75	1	65	4628	451
	3093	100	33	747	138	145	2242	88	0	88	740	76	1	66	4943	451
	3094	90	36	747	138	145	2097	89	0	89	749	76	0	66	4646	449
	3095	86	33	747	138	145	2129	88	0	88	740	76	-3	66	4990	447
	3096	101	33	747	138	145	2108	88	0	88	740	76	-3	66	4285	447
	3097	78	36	747	138	145	2050	89	0	89	743	76	-2	66	5192	448
	3098	90	34	747	138	145	2016	88	0	88	739	75	0	66	5118	449
	3099	96	35	747	138	145	2122	88	0	88	738	77	2	66	4970	452
	3100	62	38	747	138	145	1995	88	0	88	737	75	3	66	4597	453
	3101	62	38	747	138	145	1978	88	0	88	737	76	2	66	4210	452
	3102	44	38	747	138	146	2036	89	0	89	743	76	4	66	4154	454
	3103	62	38	747	138	146	2154	88	0	88	740	76	4	66	4557	454
	3104	60	36	747	138	146	2127	89	0	89	744	76	4	66	4423	454
	3105	58	38	747	138	146	2017	88	0	88	738	76	4	66	4024	454
	3106	67	38	747	138	146	1992	88	0	88	737	76	5	66	4571	455
	3107	65	38	747	138	145	2065	88	0	88	742	76	4	66	4462	454
	3108	48	38	747	138	146	2082	88	0	88	738	76	7	66	4387	457
	3109	46	38	747	138	146	1946	88	0	88	736	76	6	66	4747	456
	3110	69	34	747	138	145	2032	88	0	88	739	75	6	66	4265	456
	3111	89	36	747	138	145	2078	88	0	88	738	76	6	66	4654	456
	3112	50	38	747	138	144	2038	88	0	88	740	75	6	66	4583	456
	3113	79	33	747	138	144	1988	88	0	88	737	76	6	66	4318	456
	3114	100	37	747	138	145	2174	89	0	89	744	75	6	66	5043	456
	3115	72	37	747	138	145	2065	89	0	89	745	76	6	66	4741	456
	3116	64	38	747	138	145	1989	88	0	88	739	76	7	66	4449	457
	3117	54	38	747	138	145	2013	88	0	88	737	75	4	66	4381	454
	3118	62	38	747	138	145	1974	88	0	88	738	76	6	66	4883	456
	3119	51	37	747	138	145	2152	89	0	89	743	76	5	66	4781	455
	3120	85	38	747	138	145	2122	88	0	88	739	75	4	66	4328	454
	3121	59	38	747	138	145	2024	88	0	88	737	74	6	66	4664	456
	3122	54	38	747	138	145	2126	88	0	88	738	75	6	66	4613	456
	3123	36	38	747	138	145	2052	87	0	87	733	75	4	65	5253	454
	3124	58	38	747	138	145	1960	88	0	88	740	76	5	66	3961	455
	3125	58	38	747	138	145	2076	88	0	88	738	75	5	66	4711	455
	3126	76	37	747	138	145	2116	89	0	89	743	76	6	66	4585	456
	3127	86	36	747	138	145	2192	88	0	88	742	75	5	66	5008	455
	3128	85	34	747	138	145	2160	88	0	88	736	76	5	65	6071	455
	3129	58	38	747	138	145	1934	88	0	88	738	76	4	66	4530	454
	3130	49	33	747	138	145	1997	88	0	88	740	75	5	66	4842	455
	3131	58	38	747	138	145	1986	88	0	88	739	75	3	66	4569	453
	3132	50	38	747	137	145	2169	88	0	88	738	76	5	66	5348	455
	3133	82	38	747	137	145	1989	88	0	88	737	75	5	66	5158	455
	3134	95	37	747	137	145	1978	88	0	88	740	76	3	66	5336	453
	3135	98	37	747	137	145	2175	88	0	88	736	75	8	69	4231	458
	3136	113	36	747	137	145	2036	88	0	88	737	76	5	69	5555	455
	3137	60	38	747	137	145	2130	89	0	89	745	76	7	68	5105	457
	3138	76	37	747	137	145	1943	89	0	89	746	75	6	68	5237	456
	3139	106	28	747	137	145	2014	88	0	88	739	76	6	68	4308	456
	3140	62	38	747	137	145	2012	88	0	88	738	75	6	68	5423	456
	3141	85	38	747	137	145	1921	89	0	89	743	76	7	68	4980	457
	3142	65	38	747	137	145	1868	88	0	88	739	75	6	68	4640	456
	3143	60	38	747	137	145	2091	88	0	88	738	75	6	69	4140	456
	3144	56	38	747	137	145	1958	88	0	88	735	75	7	69	4899	457
	3145	121	33	747	137	145	1999	88	0	88	740	75	8	69	4769	458
	3146	100	34	747	137	145	1919	88	0	88	739	76	8	68	4427	458
	3147	60	38	747	137	145	1944	88	0	88	740	76	8	67	4417	458
	3148	53	38	747	137	145	1929	88	0	88	738	76	8	68	4941	458
	3149	90	33	747	137	145	1982	88	0	88	737	76	10	68	4405	460
	3150	11	23	747	138	145	2066	93	0	93	782	77	6	68	3886	456
	3151	14	32	747	138	146	1978	94	0	94	786	77	7	68	3648	457
	3152	27	32	747	138	146	2089	95	0	95	798	77	8	68	4263	458
	3153	53	32	747	138	146	2260	94	0	94	784	77	6	68	4237	456
	3154	86	31	747	138	144	2265	94	0	94	789	77	7	68	4646	457
	3155	49	32	747	138	145	2008	94	0	94	786	77	9	68	3755	459
	3156	39	32	747	138	145	2143	94	0	94	789	77	8	68	4425	458
	3157	42	32	747	138	145	2078	94	0	94	787	77	9	67	4984	459
	3158	86	31	747	138	146	2109	94	0	94	788	76	8	68	4921	458
	3159	82	32	747	138	146	2081	94	0	94	788	77	9	68	4745	459
	3160	75	32	747	138	146	2051	94	0	94	789	77	8	68	5091	458
	3161	69	32	747	138	146	2225	94	0	94	786	77	9	68	4615	459
	3162	75	28	747	138	146	2155	94	0	94	787	76	10	68	4935	460
	3163	94	32	747	138	146	2252	95	0	95	794	76	10	68	4484	460
	3164	91	29	747	138	146	2159	95	0	95	793	77	9	68	4690	459
	3165	79	32	747	138	146	2003	94	0	94	787	76	15	68	5063	465
	3166	88	27	747	138	146	2201	94	0	94	787	77	10	68	4808	460
	3167	114	29	747	138	146	2151	93	0	93	782	77	8	68	5440	458
	3168	107	30	747	139	146	2141	93	0	93	784	77	11	68	5440	461
	3169	62	28	747	138	146	1987	94	0	94	788	76	10	69	4184	460
	3170	111	29	747	138	146	2160	94	0	94	788	76	10	67	5757	460
	3171	90	32	747	138	146	2107	94	0	94	788	77	9	68	4358	459
	3172	58	32	747	138	146	2030	94	0	94	789	77	18	67	4089	468
	3173	40	32	747	138	146	2115	94	0	94	786	77	13	68	3765	463
	3174	24	32	747	138	146	2200	94	0	94	786	76	14	68	4255	464
	3175	49	29	747	139	146	2067	94	0	94	789	76	19	68	4342	469
	3176	131	29	747	138	147	2139	94	0	94	789	77	14	68	4411	464
	3177	101	30	747	139	146	2257	94	0	94	787	76	14	68	4800	464
	3178	47	32	747	139	147	2190	94	0	94	786	77	15	68	4401	465
	3179	49	32	747	139	147	2222	94	0	94	787	77	12	68	4721	462
	3180	64	32	747	139	146	2275	94	0	94	790	77	13	68	4615	463
	3181	44	31	747	139	147	2147	93	0	93	783	76	16	71	4401	466
	3182	74	32	747	140	148	2052	94	0	94	792	77	16	71	4142	466
	3183	67	32	747	139	147	2297	94	0	94	789	76	16	71	4617	466
	3184	62	32	747	140	147	2117	94	0	94	790	75	14	71	4188	464
	3185	67	32	747	139	147	2120	94	0	94	789	77	15	71	4850	465
	3186	64	32	747	139	147	2155	93	0	93	782	77	13	71	5557	463
	3187	94	30	747	140	148	2278	94	0	94	788	77	16	71	4591	466
	3188	64	32	747	140	148	2107	94	0	94	788	77	16	71	4788	466
	3189	83	31	747	140	148	2023	95	0	95	793	77	15	71	3923	465
	3190	38	32	747	140	148	2262	94	0	94	792	77	18	71	4107	468
	3191	62	33	747	140	148	2114	94	0	94	789	78	16	71	4488	466
	3192	55	32	747	140	148	2207	94	0	94	787	77	17	71	5217	467
	3193	100	31	747	140	148	2132	94	0	94	787	77	18	71	4642	468
	3194	79	32	747	140	148	2336	94	0	94	786	77	15	71	4873	465
