~Version Information
#Data from Mudlog by Horizon Well Logging, Inc., (805)733-0972, horizon@horizon-well-logging.com
#Date Prepared 2020-12-24
#LAS format #2.0
#Generated by HorizonLog v.1.2020.9.0
#DMC Remark
#
#
~Well Information Block
#-------------------------------------------------------------------------
~WELL INFORMATION
#MNEM.UNIT   DATA                        DESCRIPTION
#-------------------------------------------------------------------------
STRT.feet                          130 : Start Depth
STOP.feet                        10987 : Stop Depth
STEP.feet                         1.00 : Depth Step
NULL.                        -999.2500 : Null Value
COMP.                        UtahForge : COMPANY
WELL.                      16A (78)-32 : WELL
FLD.                       Milford, UT : FIELD
LOC.   SEC 32 TWN 26S RNG 09W LAT: 38° : LOCATION
CNTY.                           Beaver : COUNTY
APIN.                                  : API Well Number
UWI.                                   : Unique Well Identifier
DSTRT.                      2020.10.29 : LOG DATE START
DEND.                       2020.12.24 : LOG DATE END
SRVC.       Horizon Well Logging, Inc. : SERVICE COMPANY
#-------------------------------------------------------------------------
~PARAMETER INFORMATION
#MNEM.UNIT   DATA                        DESCRIPTION
#-------------------------------------------------------------------------
FL.       SEC 32 TWN 26S RNG 09W LAT:  : Surface Location
SECT.                                  : Section
TOWN_NO.                               : Township Number
TOWN_DIR.                              : Township Direction
RANG_NO.                               : Range Number
RANGE_DIR.                             : Range Direction
X_LOC.                                 : X Surface Location
Y_LOC.                                 : Y Surface Location
EKB.feet                               : Elevation of Kelly Bushing
EGL.F                                  : Elevation of Ground Level
DMF.                                   : Drilling Measured From
TDD.feet                         10987 : Total Depth - Driller
BLI.feet                         10971 : Bottom Log Interval
TLI.feet                           130 : Top Log Interval
BS.inches                         8.75 : Bit Size
DFT.                              LSND : Drilling Fluid Type
MSS.                                   : Mud Sample Source
LUN.                                32 : Mud Logging Unit Number
R1.                                    : Remark Line 1
R2.                                    : Remark Line 2
R3.                                    : Remark Line 3
R4.                                    : Remark Line 4
R5.                                    : Remark Line 5
R6.                                    : Remark Line 6
R7.                                    : Remark Line 7
R8.                                    : Remark Line 8
R9.                                    : Remark Line 9
R10.                                   : Remark Line 10
#------------------------------------------------------------------
~Curve Information Block
#MNEM.UNIT                               DESCRIPTION
#---- ----                               -----------
DEPTH        .feet                     : Depth
MUDL_ROP     .ft/h                     : Penetration Rate
MUDL_WOB     .1000lbm                  : Weight On Bit
MUDL_CO2     .                         : CO2
MUDL_TEMPIN  .                         : Temperature In
MUDL_TEMPOUT .                         : Temperature Out
MUDL_PP      .psi                      : Pump Pressure
MUDL_SPM1    .1/min                    : Strokes Per Minute Pump #1
MUDL_SPM2    .1/min                    : Strokes Per Minute Pump #2
MUDL_SPM3    .1/min                    : Strokes Per Minute Pump #3
MUDL_FLOWIN  .gal/min                  : Flow In
MUDL_FLOWOUT .percent                  : % Flow Out
MUDL_GAINLOSS.bbls                     : Drilling Fluid Gain/Loss
MUDL_RPM     .rev/min                  : RPM
MUDL_TORQUE  .lb-ft                    : Torque
MUDL_PITVOL  .bbls                     : Pit Volume
#----------------------------------------------------------------------------------------------------------------------------
~A DEPTH  ROP  WOB  CO2  TEMPIN  TEMPOUT  PP  SPM1  SPM2  SPM3  FLOWIN  FLOWOUT%  GAINLOSS  RPM  TORQUE  PITVOL  
	130	0	0	0	0	0	0	0	0	0	0	0	16	34	1959	466
	131	69	20	439	60	67	419	97	0	0	370	48	15	32	2496	465
	132	78	19	500	60	68	227	97	0	0	373	49	16	33	434	466
	133	57	20	500	60	68	293	96	0	0	375	51	17	33	2030	467
	134	69	18	484	60	68	285	95	0	0	378	50	17	32	1388	467
	135	64	19	500	60	68	433	94	0	0	378	49	17	31	2091	467
	136	60	20	500	59	68	243	94	0	0	378	49	18	32	1394	468
	137	38	21	530	58	68	573	94	0	0	378	49	18	33	2334	468
	138	30	18	530	57	68	569	94	0	0	375	50	17	34	3248	467
	139	53	19	530	57	68	612	93	0	0	383	50	17	34	3363	467
	140	69	20	484	57	68	631	93	0	0	386	51	18	35	3369	468
	141	120	21	484	58	67	557	93	0	0	386	51	17	34	4555	467
	142	141	20	469	59	66	500	91	0	0	382	51	17	33	5505	467
	143	140	19	409	60	66	481	93	0	0	389	51	16	33	5104	466
	144	174	18	393	60	66	472	90	0	0	375	53	16	34	2855	466
	145	78	19	409	60	67	540	92	0	0	375	54	16	32	5519	466
	146	67	20	439	62	67	465	94	0	0	375	53	15	32	5788	465
	147	65	20	439	62	67	483	94	0	0	375	53	14	33	5324	464
	148	103	17	469	62	66	476	93	0	0	375	53	14	34	4372	464
	149	157	18	545	62	66	446	90	0	0	375	52	20	0	0	470
	150	189	20	590	62	66	430	90	0	0	375	51	12	0	0	462
	151	205	21	590	62	65	430	91	0	0	378	51	12	0	0	462
	152	200	18	560	62	65	430	94	0	0	383	50	12	0	0	462
	153	196	15	560	62	66	430	94	0	0	383	50	12	0	0	462
	154	191	14	560	62	66	430	96	0	0	383	50	12	0	0	462
	155	192	15	560	61	66	430	98	0	0	380	50	12	0	0	462
	156	187	13	545	61	66	430	98	0	0	378	50	12	0	0	462
	157	186	13	545	61	66	430	98	0	0	378	50	12	0	0	462
	158	181	13	530	61	66	446	98	0	0	378	50	4	0	0	454
	159	186	13	575	61	66	461	98	0	0	380	50	4	0	0	454
	160	203	13	636	61	66	430	99	0	0	386	51	4	0	0	454
	161	204	15	651	61	66	430	99	0	0	386	52	12	0	0	462
	162	204	14	681	61	66	415	97	0	0	388	52	12	0	0	462
	163	203	13	712	61	66	384	97	0	0	388	51	4	0	0	454
	164	199	12	712	61	66	384	95	0	0	391	50	4	0	0	454
	165	195	11	727	60	66	369	94	0	0	391	50	4	0	0	454
	166	191	10	727	60	66	353	93	0	0	388	50	-4	0	0	446
	167	191	10	696	60	66	384	92	0	0	388	50	-4	0	0	446
	168	191	11	666	60	66	430	93	0	0	388	50	-4	0	0	446
	169	193	12	681	60	66	430	94	0	0	391	50	-4	0	0	446
	170	194	12	696	60	65	415	96	0	0	393	51	4	0	0	454
	171	195	10	681	60	65	384	95	0	0	398	51	4	0	0	454
	172	191	10	696	60	65	384	96	0	0	398	51	4	0	0	454
	173	190	10	666	60	66	384	97	0	0	396	51	4	0	0	454
	174	193	12	666	60	66	415	84	0	0	396	51	4	0	0	454
	175	200	1	666	59	68	407	72	0	0	441	51	-19	0	0	431
	176	208	-11	666	59	68	828	69	0	0	251	51	-33	38	1366	417
	177	394	-11	666	59	68	815	69	0	0	251	51	-33	37	4137	417
	178	333	0	636	59	68	769	69	0	0	251	52	-33	37	5183	417
	179	365	0	636	59	68	769	68	0	0	243	52	-33	38	2903	417
	180	366	0	666	59	68	784	68	0	0	238	52	-33	41	1530	417
	181	300	0	681	60	68	815	67	0	0	230	52	-33	36	7776	417
	182	388	0	696	60	68	815	67	0	0	230	51	-34	44	2387	416
	183	409	0	696	62	68	769	66	0	0	235	51	-34	39	2433	416
	184	411	0	696	63	69	769	68	0	0	240	51	-34	34	13489	416
	185	266	0	696	63	69	753	67	0	0	246	52	-34	37	3315	416
	186	377	0	696	63	69	738	64	0	0	246	52	-34	43	1177	416
	187	390	0	696	64	69	738	62	0	0	246	52	-34	40	1858	416
	188	333	0	696	66	69	784	61	0	0	248	51	-34	39	3408	416
	189	455	0	696	66	70	861	60	0	0	248	51	-35	35	8870	415
	190	567	-11	696	66	70	830	60	0	0	248	51	-35	41	957	415
	191	381	-11	691	66	70	830	62	0	0	248	52	-35	38	4378	415
	192	322	-11	701	68	70	638	62	0	0	248	52	-35	37	8282	415
	193	435	-11	697	68	70	874	60	0	0	238	52	-35	37	5059	415
	194	455	-11	695	68	70	859	61	0	0	236	52	-35	39	2152	415
	195	106	-11	696	68	70	572	63	0	0	242	53	-35	39	3789	415
	196	234	-11	688	68	70	696	65	0	0	241	54	-36	37	5886	414
	197	434	-11	688	68	70	839	57	0	0	240	51	-36	39	2186	414
	198	443	-11	693	68	70	1000	57	0	0	240	52	-37	37	9836	413
	199	497	-11	689	68	70	867	59	0	0	245	53	-38	39	1165	412
	200	435	-11	701	68	71	1178	53	0	0	221	51	-38	37	3185	412
	201	80	-11	689	68	72	901	55	0	0	229	52	-39	38	1177	411
	202	388	-5	697	68	72	1020	53	0	0	222	49	-39	37	3471	411
	203	121	0	692	68	72	681	60	0	0	220	51	-39	39	1398	411
	204	349	0	697	68	71	863	59	0	0	240	52	-39	37	4318	411
	205	411	0	688	68	71	923	58	0	0	241	52	-39	38	750	411
	206	443	0	688	68	71	1323	59	0	0	246	53	-40	38	1388	410
	207	350	0	688	68	71	960	57	0	0	240	54	-40	38	2833	410
	208	388	0	701	68	71	1294	57	0	0	247	54	-40	39	5957	410
	209	433	0	696	68	71	1132	58	0	0	242	53	-40	39	2433	410
	210	354	0	701	68	71	1080	59	0	0	248	53	-40	36	5758	410
	211	349	0	700	68	72	655	59	0	0	254	53	-41	38	3801	409
	212	435	0	698	68	73	918	57	0	0	235	53	-41	39	3023	409
	213	444	0	698	68	73	811	61	0	0	254	54	-41	37	3663	409
	214	496	0	696	68	73	881	58	0	0	241	55	-41	39	4295	409
	215	506	0	695	68	73	1289	59	0	0	248	56	-41	30	14741	409
	216	466	0	697	68	73	1231	57	0	0	242	53	-41	38	1384	409
	217	435	0	700	68	73	859	58	0	0	246	55	-41	38	1886	409
	218	589	0	700	68	74	895	58	0	0	242	55	-41	37	7737	409
	219	435	0	698	68	74	825	57	0	0	239	55	-42	36	5604	408
	220	411	0	696	68	74	950	56	0	0	233	54	-42	38	695	408
	221	292	0	688	68	74	1034	55	0	0	229	57	-42	34	9589	408
	222	387	0	689	68	73	922	56	0	0	233	63	-42	38	7681	408
	223	435	0	688	68	73	904	58	0	0	242	67	-43	38	9154	407
	224	444	0	688	68	73	1181	58	0	0	241	69	-43	37	4931	407
	225	151	0	689	68	73	639	58	0	0	235	76	-43	34	11824	407
	226	290	0	689	68	73	627	60	0	0	243	75	-43	39	2484	407
	227	234	0	696	68	73	811	60	0	0	238	74	-44	39	73	406
	228	436	0	695	68	73	715	60	0	0	240	73	-44	40	3039	406
	229	432	0	697	68	73	861	60	0	0	248	72	-44	39	3106	406
	230	512	0	692	68	74	799	56	0	0	248	71	-44	38	4474	406
	231	576	0	696	68	75	755	58	0	0	243	70	-44	40	5092	406
	232	314	0	693	68	77	635	59	0	0	245	70	-45	39	7630	405
	233	317	0	688	68	77	610	60	0	0	250	68	-45	38	2496	405
	234	185	0	688	68	77	620	58	0	0	243	60	-45	38	3690	405
	235	387	0	688	68	77	742	59	0	0	247	68	-46	38	1242	404
	236	444	0	688	68	77	984	55	0	0	230	65	-40	0	0	410
	237	436	0	688	68	77	956	59	0	0	249	66	-41	0	0	409
	238	443	0	688	68	76	775	59	0	0	248	66	-41	0	0	409
	239	589	0	688	68	76	1193	55	0	0	231	64	-41	0	0	409
	240	443	0	688	68	75	928	61	0	0	258	67	-41	0	0	409
	241	322	0	688	68	74	784	58	0	0	243	62	-41	0	0	409
	242	135	0	697	68	74	606	60	0	0	253	66	-41	0	0	409
	243	289	0	689	68	74	634	59	0	0	244	70	-41	0	0	409
	244	344	0	693	68	74	1205	56	0	0	236	70	-41	0	0	409
	245	296	0	696	68	74	642	58	0	0	242	75	-42	0	0	408
	246	353	0	695	68	74	919	58	0	0	244	71	-42	0	0	408
	247	442	0	700	68	73	1344	51	0	0	215	74	-42	0	0	408
	248	394	0	698	68	73	948	59	0	0	242	72	-42	0	0	408
	249	355	0	688	68	73	980	59	0	0	246	72	-42	0	0	408
	250	552	0	688	67	73	1167	59	0	0	247	72	-42	0	0	408
	251	442	0	688	68	73	1027	60	0	0	250	71	-43	0	0	407
	252	422	0	688	68	73	905	64	0	0	254	71	-43	0	0	407
	253	273	0	688	68	75	564	65	0	0	240	73	-43	0	0	407
	254	195	0	688	68	75	570	65	0	0	261	74	-44	0	0	406
	255	443	0	688	68	75	967	65	0	0	261	72	-44	0	0	406
	256	443	0	688	68	74	711	58	0	0	261	75	-44	0	0	406
	257	344	0	688	68	73	949	53	0	0	261	73	-44	0	0	406
	258	294	0	688	68	72	904	56	0	0	259	75	-26	0	0	424
	259	375	0	688	66	72	664	59	0	0	259	73	-26	0	0	424
	260	403	0	688	66	72	800	58	0	0	259	74	-34	0	0	416
	261	406	0	688	66	71	769	57	0	0	259	74	-41	0	0	409
	262	358	0	696	66	72	769	57	0	0	256	74	-41	0	0	409
	263	353	0	696	68	72	769	59	0	0	251	74	-41	0	0	409
	264	376	0	696	69	72	784	60	0	0	251	75	-18	0	0	432
	265	372	0	712	70	73	861	60	0	0	251	74	-18	0	0	432
	266	386	0	712	70	73	800	56	0	0	251	74	-26	0	0	424
	267	387	0	712	69	72	769	53	0	0	256	74	-18	0	0	432
	268	384	0	681	69	72	738	53	0	0	256	75	-26	0	0	424
	269	395	0	681	69	70	738	53	0	0	256	76	-34	0	0	416
	270	393	0	681	68	69	784	53	0	0	253	75	-48	0	0	402
	271	386	0	681	68	70	784	53	0	0	251	75	-48	0	0	402
	272	389	0	681	67	70	769	53	0	0	259	75	-56	0	0	394
	273	384	-11	688	67	71	723	54	0	0	261	76	-47	0	0	403
	274	555	0	689	66	69	800	73	0	0	308	59	-38	0	0	412
	275	592	0	688	66	69	748	74	0	0	307	59	-38	0	0	412
	276	590	0	689	66	69	732	74	0	0	432	59	-37	0	0	413
	277	577	0	688	66	69	816	73	0	0	302	59	-37	0	0	413
	278	600	0	688	66	69	801	72	0	0	300	58	-37	0	0	413
	279	435	0	688	66	69	877	73	0	0	305	55	-36	0	0	414
	280	592	0	688	66	69	1038	72	0	0	300	55	-36	0	0	414
