~Version Information
#Data from Mudlog by Horizon Well Logging, Inc., (805)733-0972, horizon@horizon-well-logging.com
#Date Prepared 2020-12-24
#LAS format #2.0
#Generated by HorizonLog v.1.2020.9.0
#DMC Remark
#
#
~Well Information Block
#-------------------------------------------------------------------------
~WELL INFORMATION
#MNEM.UNIT   DATA                        DESCRIPTION
#-------------------------------------------------------------------------
STRT.feet                          130 : Start Depth
STOP.feet                        10987 : Stop Depth
STEP.feet                         1.00 : Depth Step
NULL.                        -999.2500 : Null Value
COMP.                        UtahForge : COMPANY
WELL.                      16A (78)-32 : WELL
FLD.                       Milford, UT : FIELD
LOC.   SEC 32 TWN 26S RNG 09W LAT: 38° : LOCATION
CNTY.                           Beaver : COUNTY
APIN.                                  : API Well Number
UWI.                                   : Unique Well Identifier
DSTRT.                      2020.10.29 : LOG DATE START
DEND.                       2020.12.24 : LOG DATE END
SRVC.       Horizon Well Logging, Inc. : SERVICE COMPANY
#-------------------------------------------------------------------------
~PARAMETER INFORMATION
#MNEM.UNIT   DATA                        DESCRIPTION
#-------------------------------------------------------------------------
FL.       SEC 32 TWN 26S RNG 09W LAT:  : Surface Location
SECT.                                  : Section
TOWN_NO.                               : Township Number
TOWN_DIR.                              : Township Direction
RANG_NO.                               : Range Number
RANGE_DIR.                             : Range Direction
X_LOC.                                 : X Surface Location
Y_LOC.                                 : Y Surface Location
EKB.feet                               : Elevation of Kelly Bushing
EGL.F                                  : Elevation of Ground Level
DMF.                                   : Drilling Measured From
TDD.feet                         10987 : Total Depth - Driller
BLI.feet                         10971 : Bottom Log Interval
TLI.feet                           130 : Top Log Interval
BS.inches                         8.75 : Bit Size
DFT.                              LSND : Drilling Fluid Type
MSS.                                   : Mud Sample Source
LUN.                                32 : Mud Logging Unit Number
R1.                                    : Remark Line 1
R2.                                    : Remark Line 2
R3.                                    : Remark Line 3
R4.                                    : Remark Line 4
R5.                                    : Remark Line 5
R6.                                    : Remark Line 6
R7.                                    : Remark Line 7
R8.                                    : Remark Line 8
R9.                                    : Remark Line 9
R10.                                   : Remark Line 10
#------------------------------------------------------------------
~Curve Information Block
#MNEM.UNIT                               DESCRIPTION
#---- ----                               -----------
DEPTH        .feet                     : Depth
MUDL_ROP     .ft/h                     : Penetration Rate
MUDL_WOB     .1000lbm                  : Weight On Bit
MUDL_CO2     .                         : CO2
MUDL_TEMPIN  .                         : Temperature In
MUDL_TEMPOUT .                         : Temperature Out
MUDL_PP      .psi                      : Pump Pressure
MUDL_SPM1    .1/min                    : Strokes Per Minute Pump #1
MUDL_SPM2    .1/min                    : Strokes Per Minute Pump #2
MUDL_SPM3    .1/min                    : Strokes Per Minute Pump #3
MUDL_FLOWIN  .gal/min                  : Flow In
MUDL_FLOWOUT .percent                  : % Flow Out
MUDL_GAINLOSS.bbls                     : Drilling Fluid Gain/Loss
MUDL_RPM     .rev/min                  : RPM
MUDL_TORQUE  .lb-ft                    : Torque
MUDL_PITVOL  .bbls                     : Pit Volume
#----------------------------------------------------------------------------------------------------------------------------
~A DEPTH  ROP  WOB  CO2  TEMPIN  TEMPOUT  PP  SPM1  SPM2  SPM3  FLOWIN  FLOWOUT%  GAINLOSS  RPM  TORQUE  PITVOL  
# ...
	5078	7	48	2205	149	157	2378	0	93	98	801	78	-40	45	3362	410
	5079	7	48	2201	148	157	2310	0	94	97	800	77	-34	45	3101	416
	5080	7	48	1924	148	157	2351	0	94	98	802	77	-31	45	3745	419
	5081	6	48	2065	147	156	2375	0	94	98	802	78	-27	45	3449	423
	5082	7	48	2332	146	156	2365	0	93	98	800	77	-21	45	3698	429
	5083	6	48	2612	147	156	2359	0	94	98	804	77	-18	45	3340	432
	5084	6	48	2612	148	156	2361	0	93	98	802	77	-16	45	3226	434
	5085	9	52	2479	148	157	2362	0	94	98	803	77	-15	45	3409	435
	5086	7	52	2753	149	157	2356	0	94	98	802	77	-12	45	3295	438
	5087	7	52	2753	148	157	2416	0	94	98	801	77	-8	45	3368	442
	5088	7	52	1912	150	158	2345	0	94	98	803	77	-5	45	3575	445
	5089	8	54	2058	150	158	2381	0	94	98	804	77	-2	45	3479	448
	5090	7	54	2192	150	158	2369	0	94	98	803	77	0	45	3390	449
	5091	7	55	2472	150	159	2357	0	93	98	802	78	3	45	3621	453
	5092	8	58	2332	151	159	2365	0	93	97	800	77	4	45	3251	454
	5093	8	60	2332	151	158	2423	0	93	98	801	77	5	45	3490	455
	5094	8	60	2332	151	159	2391	0	94	98	802	78	6	45	3471	456
	5095	8	60	2193	151	159	2413	0	94	98	804	78	8	45	3484	458
	5096	8	60	2612	151	159	2437	0	94	98	805	76	9	45	3488	459
	5097	9	60	2612	152	159	2427	0	94	98	803	77	11	45	3607	461
	5098	8	60	2612	151	159	2397	0	93	98	800	77	11	45	3560	461
	5099	9	60	2475	153	159	2365	0	94	98	802	77	12	45	3467	462
	5100	8	59	2332	152	159	2387	0	93	98	801	78	12	45	3445	462
	5101	9	60	2472	152	160	2420	0	94	98	804	78	13	45	3473	463
	5102	9	60	2332	154	160	2393	0	93	98	801	77	13	45	3433	463
	5103	8	60	2612	154	160	2407	0	93	98	802	78	14	45	3360	464
	5104	8	61	2612	154	162	2458	0	94	98	803	77	13	45	3554	463
	5105	8	60	2753	155	162	2407	0	94	98	802	77	14	45	3243	464
	5106	8	60	2753	155	162	2438	0	93	98	802	77	13	45	3333	464
	5107	8	60	2893	155	161	2363	0	94	98	803	77	13	45	3490	463
	5108	8	60	2753	156	162	2376	0	94	98	803	77	16	45	3392	466
	5109	7	60	2753	155	163	2383	0	94	98	802	77	11	45	3398	461
	5110	6	61	2472	155	162	2384	0	94	98	804	77	12	45	3410	464
	5111	15	60	2472	155	163	2363	0	93	98	850	77	14	44	3427	464
	5112	8	60	2472	157	162	2391	0	94	98	802	77	15	44	3514	465
	5113	8	60	2477	157	163	2368	0	93	98	802	77	12	29	3490	464
	5114	10	5	1517	119	135	1271	0	0	98	412	1	11	29	3332	461
	5115	12	3	1517	121	134	1361	0	0	98	411	1	12	29	3771	462
	5116	40	10	1517	121	133	1398	0	0	98	412	1	12	29	4036	462
	5117	37	10	1517	122	133	1357	0	0	99	413	1	12	28	4048	462
	5118	53	11	1517	122	132	1485	0	0	99	413	1	13	29	4427	463
	5119	58	11	1517	122	133	1421	0	0	98	411	1	12	28	3951	462
	5120	36	11	1376	123	133	1385	0	0	98	412	1	12	29	3945	461
	5121	41	10	1517	123	133	1372	0	0	98	411	1	12	29	4014	462
	5122	33	10	1517	123	133	1337	0	0	98	409	1	12	29	3826	462
	5123	26	11	1517	124	133	1330	0	0	98	411	1	13	29	3627	463
	5124	28	11	1655	124	134	1343	0	0	98	412	1	13	29	3688	463
	5125	37	16	1657	127	134	1643	52	0	63	483	1	14	31	2876	464
	5126	55	28	1657	127	134	1865	52	0	63	483	1	8	32	4040	458
	5127	72	34	1517	127	134	1907	53	0	63	489	1	7	32	4508	457
	5128	50	28	1517	127	134	1779	53	0	63	487	1	7	31	3807	456
	5129	57	26	1517	127	134	1740	51	0	63	479	1	7	31	3676	457
	5130	62	30	1517	127	134	1880	53	0	63	489	1	7	32	4413	457
	5131	83	26	1517	127	134	1891	53	0	63	485	1	7	32	4421	457
	5132	106	24	1517	127	134	1891	53	0	63	487	1	7	31	4358	457
	5133	104	29	1517	127	134	1869	53	0	63	486	1	7	31	3947	457
	5134	57	30	1517	127	134	1812	52	0	63	484	1	7	32	3680	457
	5135	46	30	1517	127	134	1797	52	0	63	483	1	7	32	3753	456
	5136	46	30	1517	127	134	1817	53	0	63	486	1	6	31	3805	456
	5137	44	30	1517	127	135	1787	52	0	63	483	1	7	31	3777	457
	5138	38	30	1517	127	135	1787	53	0	63	486	1	7	32	3718	457
	5139	42	30	1517	127	135	1743	52	0	63	482	1	7	31	3777	457
	5140	36	30	1517	127	135	1762	53	0	63	486	1	7	32	3757	457
	5141	37	30	1517	127	135	1777	53	0	63	486	1	8	32	3729	458
	5142	36	30	1517	128	135	1750	52	0	63	480	1	8	32	3494	457
	5143	32	30	1517	128	135	1766	53	0	63	485	1	8	32	3587	458
	5144	32	30	1517	128	135	1735	53	0	63	483	1	8	31	3569	458
	5145	30	30	1517	128	135	1742	53	0	62	485	1	7	32	3350	457
	5146	32	30	1517	128	135	1755	52	0	63	483	1	7	31	3595	457
	5147	33	30	1657	128	136	1727	53	0	63	485	1	8	31	3477	458
	5148	32	30	1517	129	136	1722	53	0	63	485	1	8	32	3398	458
	5149	32	30	1517	129	136	1748	53	0	63	487	1	8	31	3637	458
	5150	33	30	1517	129	136	1785	52	0	0	219	1	8	31	3421	458
	5151	27	30	1517	129	136	1733	53	0	0	222	1	7	32	3350	457
	5152	22	30	1517	129	136	1705	53	0	0	224	1	8	32	3358	457
	5153	18	30	1517	129	136	1740	52	0	0	220	1	7	32	3299	457
	5154	38	30	1517	129	136	1835	53	61	54	704	1	7	32	3937	457
	5155	29	30	1517	129	136	1798	53	38	0	383	1	7	32	3822	457
	5156	27	29	1558	129	136	1811	53	63	0	489	1	7	32	3524	457
	5157	22	30	1096	129	136	1783	54	62	121	993	1	7	31	3346	457
	5158	21	30	962	129	136	1761	54	62	0	487	1	7	32	3441	457
	5159	43	35	965	129	136	1889	54	63	0	490	1	7	32	4071	457
	5160	55	35	956	129	136	1860	53	63	0	488	1	8	32	3903	457
	5161	55	35	956	129	136	1865	54	63	0	489	1	8	31	4105	458
	5162	59	35	1040	129	136	1881	54	63	0	491	1	8	31	4030	458
	5163	61	35	956	129	136	1877	53	63	0	485	1	8	32	4281	458
	5164	85	40	961	129	136	1901	54	63	0	491	1	8	31	4324	458
	5165	69	40	965	129	136	1911	53	63	0	487	1	8	32	4129	458
	5166	51	40	956	129	136	1838	53	63	0	486	1	8	32	3797	458
	5167	45	40	1096	129	136	1848	54	63	0	492	1	8	31	3528	458
	5168	54	41	963	129	136	1882	53	62	0	485	1	8	31	4152	458
	5169	70	45	957	129	137	1934	53	63	0	487	1	8	31	4672	458
	5170	66	45	1096	129	137	1899	54	63	0	490	1	8	31	4455	458
	5171	61	45	1096	129	137	1897	53	63	0	490	1	8	32	4271	458
	5172	64	45	1096	130	137	1952	53	63	0	489	1	8	32	4223	458
	5173	67	45	1096	130	134	1878	53	63	0	487	1	8	32	4184	458
	5174	33	39	1096	130	135	1808	54	63	0	489	1	8	32	3621	458
	5175	41	39	1096	130	135	1797	53	63	0	485	1	8	32	3593	458
	5176	37	39	1096	130	136	1837	53	63	0	487	1	8	32	3929	458
	5177	43	39	1096	130	136	1870	53	63	0	488	1	7	32	3739	457
	5178	63	38	1096	130	136	1874	53	63	0	486	1	8	32	4330	458
	5179	66	39	1096	130	136	1866	53	63	0	488	1	7	32	4008	457
	5180	46	40	1096	130	137	1848	53	63	0	488	1	7	31	4073	457
	5181	48	40	1096	130	137	1840	53	63	0	486	1	7	31	3686	457
	5182	63	40	1096	130	137	1929	53	63	0	489	1	7	32	4573	457
	5183	89	40	1096	130	137	1922	53	63	0	488	1	7	32	4107	457
	5184	55	40	1096	130	137	1830	53	63	0	485	1	7	32	4109	457
	5185	53	40	1096	130	137	1832	54	63	0	489	1	7	32	3895	457
	5186	47	40	1096	130	137	1819	52	63	0	482	1	7	31	3826	457
	5187	47	40	1096	130	138	1846	53	63	0	488	1	7	31	3884	457
	5188	20	40	1096	130	138	2284	68	69	0	572	1	3	31	2915	453
	5189	27	40	1096	130	138	2329	68	69	0	573	1	3	32	3267	453
	5190	33	40	1096	131	138	2303	67	69	0	571	1	3	32	2975	452
	5191	26	40	1096	131	138	2288	67	69	0	571	1	2	31	3091	452
	5192	27	40	1096	131	138	2307	67	69	0	572	1	3	31	3038	452
	5193	27	40	1096	131	139	2238	68	69	0	573	1	2	31	3277	452
	5194	18	39	1096	131	139	2230	68	69	0	572	1	2	32	2793	452
	5195	15	40	1096	131	139	2166	67	69	0	570	1	2	32	3032	452
	5196	16	40	1096	131	139	2220	66	69	0	567	1	2	32	3046	452
	5197	15	40	1096	131	139	2276	67	69	0	568	1	2	31	2953	452
	5198	10	35	1376	132	140	2161	66	69	0	564	1	1	32	2983	451
	5199	11	39	1376	132	140	2211	67	69	0	570	1	1	35	2882	451
	5200	12	40	1376	133	140	2269	67	69	0	568	1	1	34	3117	451
	5201	13	40	1376	133	140	2286	67	69	0	571	1	1	34	3105	451
	5202	10	40	1379	134	140	2220	67	69	0	571	1	1	34	2991	450
	5203	9	40	1249	134	140	2161	67	69	0	568	1	1	34	3068	451
	5204	9	40	1243	134	140	2272	67	69	0	568	1	0	35	2989	450
	5205	9	35	1376	134	140	2241	67	68	0	565	1	-3	54	3814	447
	5206	12	37	1376	134	140	2166	67	69	0	569	1	-3	54	3947	447
	5207	14	40	1377	133	141	2190	67	69	0	568	1	-3	54	3929	447
	5208	15	42	1377	132	141	2309	67	69	0	569	1	-2	54	3769	448
	5209	16	44	1377	132	141	2161	67	69	0	568	1	-3	54	3840	447
	5210	16	45	1377	132	140	2189	67	69	0	569	1	-3	54	4050	447
	5211	16	45	1377	134	141	2228	67	68	0	566	1	-4	54	3828	446
	5212	14	45	1377	133	141	2230	67	69	0	568	1	-2	54	3963	447
	5213	21	45	1377	132	141	2276	67	69	0	569	1	-2	54	4186	447
	5214	34	45	1377	133	140	2257	67	69	0	568	1	-5	58	4466	445
	5215	29	45	1377	133	141	2286	67	69	0	568	1	-4	58	4528	446
