~Version Information
#Data from Mudlog by Horizon Well Logging, Inc., (805)733-0972, horizon@horizon-well-logging.com
#Date Prepared 2020-12-24
#LAS format #2.0
#Generated by HorizonLog v.1.2020.9.0
#DMC Remark
#
#
~Well Information Block
#-------------------------------------------------------------------------
~WELL INFORMATION
#MNEM.UNIT   DATA                        DESCRIPTION
#-------------------------------------------------------------------------
STRT.feet                          130 : Start Depth
STOP.feet                        10987 : Stop Depth
STEP.feet                         1.00 : Depth Step
NULL.                        -999.2500 : Null Value
COMP.                        UtahForge : COMPANY
WELL.                      16A (78)-32 : WELL
FLD.                       Milford, UT : FIELD
LOC.   SEC 32 TWN 26S RNG 09W LAT: 38° : LOCATION
CNTY.                           Beaver : COUNTY
APIN.                                  : API Well Number
UWI.                                   : Unique Well Identifier
DSTRT.                      2020.10.29 : LOG DATE START
DEND.                       2020.12.24 : LOG DATE END
SRVC.       Horizon Well Logging, Inc. : SERVICE COMPANY
#-------------------------------------------------------------------------
~PARAMETER INFORMATION
#MNEM.UNIT   DATA                        DESCRIPTION
#-------------------------------------------------------------------------
FL.       SEC 32 TWN 26S RNG 09W LAT:  : Surface Location
SECT.                                  : Section
TOWN_NO.                               : Township Number
TOWN_DIR.                              : Township Direction
RANG_NO.                               : Range Number
RANGE_DIR.                             : Range Direction
X_LOC.                                 : X Surface Location
Y_LOC.                                 : Y Surface Location
EKB.feet                               : Elevation of Kelly Bushing
EGL.F                                  : Elevation of Ground Level
DMF.                                   : Drilling Measured From
TDD.feet                         10987 : Total Depth - Driller
BLI.feet                         10971 : Bottom Log Interval
TLI.feet                           130 : Top Log Interval
BS.inches                         8.75 : Bit Size
DFT.                              LSND : Drilling Fluid Type
MSS.                                   : Mud Sample Source
LUN.                                32 : Mud Logging Unit Number
R1.                                    : Remark Line 1
R2.                                    : Remark Line 2
R3.                                    : Remark Line 3
R4.                                    : Remark Line 4
R5.                                    : Remark Line 5
R6.                                    : Remark Line 6
R7.                                    : Remark Line 7
R8.                                    : Remark Line 8
R9.                                    : Remark Line 9
R10.                                   : Remark Line 10
#------------------------------------------------------------------
~Curve Information Block
#MNEM.UNIT                               DESCRIPTION
#---- ----                               -----------
DEPTH        .feet                     : Depth
MUDL_ROP     .ft/h                     : Penetration Rate
MUDL_WOB     .1000lbm                  : Weight On Bit
MUDL_CO2     .                         : CO2
MUDL_TEMPIN  .                         : Temperature In
MUDL_TEMPOUT .                         : Temperature Out
MUDL_PP      .psi                      : Pump Pressure
MUDL_SPM1    .1/min                    : Strokes Per Minute Pump #1
MUDL_SPM2    .1/min                    : Strokes Per Minute Pump #2
MUDL_SPM3    .1/min                    : Strokes Per Minute Pump #3
MUDL_FLOWIN  .gal/min                  : Flow In
MUDL_FLOWOUT .percent                  : % Flow Out
MUDL_GAINLOSS.bbls                     : Drilling Fluid Gain/Loss
MUDL_RPM     .rev/min                  : RPM
MUDL_TORQUE  .lb-ft                    : Torque
MUDL_PITVOL  .bbls                     : Pit Volume
#----------------------------------------------------------------------------------------------------------------------------
~A DEPTH  ROP  WOB  CO2  TEMPIN  TEMPOUT  PP  SPM1  SPM2  SPM3  FLOWIN  FLOWOUT%  GAINLOSS  RPM  TORQUE  PITVOL  
# ...
	7849	55	50	1099	129	151	3642	0	71	71	594	59	0	69	9129	0
	7850	71	50	1097	129	151	3639	0	71	71	592	61	0	69	9374	0
	7851	61	50	1096	129	151	3636	0	71	71	593	59	0	70	8949	0
	7852	65	50	1096	129	151	3621	0	71	71	591	61	0	69	8989	0
	7853	56	50	1096	129	151	3678	0	70	71	594	59	0	69	9111	0
	7854	65	50	1099	129	151	3610	0	71	70	591	60	0	69	8785	0
	7855	61	50	1103	129	151	3621	0	71	71	593	60	0	69	9017	0
	7856	51	50	1099	129	151	3660	0	71	71	593	60	0	69	8744	0
	7857	65	50	1105	129	151	3630	0	71	71	592	60	0	69	8857	0
	7858	52	50	1236	129	152	3599	0	71	71	594	56	0	70	8910	0
	7859	55	50	1105	129	152	3581	0	71	71	593	59	0	69	8985	0
	7860	60	50	1236	129	152	3627	0	70	72	594	59	0	69	8924	0
	7861	51	50	1236	129	152	3574	0	70	71	591	59	0	69	8930	0
	7862	66	50	1243	129	151	3618	0	71	71	592	60	0	69	8914	0
	7863	60	50	1243	129	151	3587	0	71	71	591	60	0	69	8519	0
	7864	66	49	1236	129	151	3679	0	70	71	593	60	0	69	9214	0
	7865	52	50	1239	129	152	3661	0	71	71	594	58	0	69	8989	0
	7866	65	50	1227	129	151	3647	0	70	71	593	60	0	69	8979	0
	7867	80	50	1212	130	152	3642	0	71	70	590	60	0	69	9181	0
	7868	7	15	1212	131	152	3281	0	70	70	586	61	0	0	0	0
	7869	42	30	1212	131	152	3393	0	69	70	584	59	0	0	0	0
	7870	42	45	1212	131	152	3368	0	70	70	585	59	0	0	0	0
	7871	26	55	1249	131	152	3434	0	70	70	585	59	0	0	0	0
	7872	25	59	1249	130	150	3434	0	70	70	586	59	0	0	0	0
	7873	23	61	1389	129	142	3410	0	70	71	588	59	0	0	0	0
	7874	22	60	1389	127	149	3401	0	70	70	587	59	0	0	0	0
	7875	25	60	1389	127	149	3415	0	70	70	585	57	0	0	0	0
	7876	25	60	1245	127	149	3441	0	70	71	589	57	0	0	0	0
	7877	24	59	1228	127	149	3450	0	69	70	586	59	0	0	0	0
	7878	25	58	1249	128	149	3393	0	70	70	587	58	0	0	0	0
	7879	25	39	1249	128	149	3453	0	70	70	585	60	0	0	0	0
	7880	56	50	1249	124	149	3582	0	70	71	590	58	0	68	8706	0
	7881	51	50	1249	124	150	3556	0	71	72	597	59	0	68	8179	0
	7882	48	50	1249	125	150	3417	0	68	68	572	58	0	69	8060	0
	7883	48	50	1249	124	150	3395	0	68	68	573	58	0	69	8689	0
	7884	51	50	1249	125	150	3577	0	71	71	595	60	0	68	8724	0
	7885	52	49	1249	125	150	3712	0	70	71	593	59	0	68	9769	0
	7886	56	27	1249	125	150	3545	0	71	71	592	59	0	69	8376	0
	7887	51	23	1249	125	150	3576	0	70	70	588	60	0	69	8600	0
	7888	42	26	1247	125	150	3551	0	71	71	594	59	0	68	8199	0
	7889	38	37	1249	126	150	3677	0	71	71	594	58	0	68	8487	0
	7890	39	0	1290	126	150	3398	0	71	71	594	59	0	0	0	0
	7891	38	15	1389	126	150	3446	0	71	72	597	59	0	0	0	0
	7892	36	33	1389	126	150	3448	0	71	71	595	60	0	0	0	0
	7893	34	46	1389	126	150	3516	0	71	71	595	58	0	0	0	0
	7894	31	58	1389	126	150	3552	0	71	71	596	58	0	0	0	0
	7895	27	64	1389	126	150	3526	0	71	71	595	58	0	0	0	0
	7896	23	63	1109	126	150	3528	0	71	71	596	60	0	0	0	0
	7897	24	64	1109	127	150	3547	0	71	71	594	62	0	0	0	0
	7898	24	63	1109	127	150	3529	0	71	71	596	61	0	0	0	0
	7899	25	64	1109	127	150	3541	0	71	71	596	59	0	0	0	0
	7900	23	64	1109	127	150	3572	0	71	71	593	58	0	0	0	0
	7901	26	59	1249	128	150	3592	0	71	71	595	61	0	0	0	0
	7902	29	62	1249	127	150	3518	0	71	71	594	59	0	0	0	0
	7903	23	65	1249	127	150	3522	0	71	71	594	59	0	0	0	0
	7904	20	65	1249	127	150	3537	0	71	71	593	59	0	0	0	0
	7905	22	65	1249	127	150	3539	0	71	71	591	58	0	0	0	0
	7906	27	63	1249	128	150	3531	0	71	72	598	59	0	0	0	0
	7907	27	65	1245	128	149	3528	0	71	71	594	62	0	0	0	0
	7908	24	64	1249	128	149	3511	0	71	71	594	59	0	0	0	0
	7909	26	62	1249	128	149	3538	0	71	71	595	60	0	0	0	0
	7910	26	65	1249	128	149	3512	0	71	71	594	59	0	0	0	0
	7911	19	65	1247	128	149	3515	0	71	71	594	58	0	0	0	0
	7912	24	65	1389	128	149	3496	0	71	71	595	59	0	0	0	0
	7913	19	65	1389	129	149	3494	0	71	71	592	60	0	0	0	0
	7914	30	61	1389	129	148	3513	0	71	71	593	58	0	0	0	0
	7915	9	50	1821	129	148	3486	0	70	70	586	61	0	69	8544	0
	7916	48	50	1864	128	149	3474	0	70	69	585	58	0	69	8562	0
	7917	48	49	1878	128	149	3556	0	70	69	586	60	0	69	8894	0
	7918	55	50	1666	129	149	3548	0	70	69	585	60	0	69	8546	0
	7919	51	50	1517	128	149	3499	0	70	70	589	57	0	69	8499	0
	7920	45	50	1520	129	149	3531	0	70	70	588	58	0	69	8617	0
	7921	45	50	1388	128	149	3486	0	71	70	587	58	0	69	8722	0
	7922	51	50	1389	129	149	3516	0	71	71	591	56	0	69	8647	0
	7923	48	50	1389	128	149	3522	0	71	69	585	58	0	69	8564	0
	7924	55	48	1389	128	149	3610	0	71	70	587	61	0	69	9190	0
	7925	60	49	1389	128	149	3453	0	70	70	589	58	0	69	8645	0
	7926	48	50	1389	128	149	3476	0	71	70	587	59	0	70	8384	0
	7927	55	50	1389	128	150	3509	0	71	70	587	58	0	69	8627	0
	7928	48	50	1389	128	150	3556	0	71	69	585	58	0	69	8736	0
	7929	61	50	1386	128	149	3477	0	70	69	585	60	0	69	9032	0
	7930	55	49	1660	128	149	3494	0	70	70	589	60	0	69	8718	0
	7931	56	50	1517	128	149	3545	0	70	70	589	56	0	69	8736	0
	7932	60	50	1517	128	149	3526	0	70	70	586	58	0	69	8892	0
	7933	56	50	1519	128	149	3514	0	70	70	588	58	0	69	8793	0
	7934	56	50	1517	128	150	3543	0	70	70	585	59	0	70	8384	0
	7935	55	50	1520	128	150	3515	0	70	70	588	58	0	69	8813	0
	7936	65	49	1517	128	151	3495	0	70	70	589	61	0	69	8807	0
	7937	61	49	1525	128	151	3573	0	71	70	587	59	0	69	9295	0
	7938	65	48	1517	128	151	3538	0	71	70	588	59	0	69	9104	0
	7939	9	18	1517	128	151	3249	0	70	69	581	58	0	0	0	0
	7940	40	27	1523	128	150	3320	0	70	69	583	54	0	0	0	0
	7941	45	40	1517	128	150	3288	0	69	69	580	58	0	0	0	0
	7942	38	52	1517	128	150	3386	0	70	70	584	60	0	0	0	0
	7943	38	61	1517	127	151	3416	0	69	69	581	59	0	0	0	0
	7944	25	63	1517	128	151	3418	0	70	69	583	61	0	0	0	0
	7945	25	63	1517	128	151	3368	0	69	69	581	60	0	0	0	0
	7946	25	64	1517	128	151	3374	0	69	69	581	59	0	0	0	0
	7947	25	65	1517	128	151	3404	0	70	70	586	59	0	0	0	0
	7948	23	63	1517	128	151	3431	0	69	69	581	58	0	0	0	0
	7949	27	63	1517	128	151	3389	0	70	69	582	58	0	0	0	0
	7950	26	65	1517	128	151	3375	0	70	69	581	59	0	0	0	0
	7951	25	65	1517	128	151	3375	0	70	69	583	61	0	0	0	0
	7952	22	64	1384	128	151	3375	0	70	69	582	59	0	0	0	0
	7953	23	65	1389	128	149	3380	0	70	70	584	57	0	0	0	0
	7954	23	65	1383	128	150	3360	0	70	69	583	59	0	0	0	0
	7955	23	65	1517	128	150	3433	0	70	69	583	60	0	0	0	0
	7956	21	63	1517	128	150	3448	0	69	69	578	58	0	0	0	0
	7957	26	52	1517	128	150	3367	0	70	70	583	56	0	0	0	0
	7958	25	56	1517	128	149	3387	0	69	69	580	59	0	0	0	0
	7959	26	61	1517	129	149	3433	0	69	69	582	59	0	0	0	0
	7960	29	65	1517	129	148	3414	0	70	69	580	58	0	0	0	0
	7961	22	65	1517	129	148	3421	0	70	69	583	58	0	0	0	0
	7962	30	63	1385	128	148	3428	0	69	69	581	59	0	0	0	0
	7963	30	59	1517	128	148	3433	0	70	70	584	58	0	0	0	0
	7964	10	50	1517	129	148	3452	0	69	70	582	59	0	71	9157	0
	7965	66	48	1517	129	148	3465	0	69	69	580	60	0	70	9260	0
	7966	65	49	1517	128	148	3453	0	69	70	581	59	0	71	9030	0
	7967	73	50	1517	128	148	3471	0	69	70	581	59	0	71	9088	0
	7968	59	49	1517	128	148	3459	0	69	70	581	56	0	71	8835	0
	7969	73	49	1517	128	148	3432	0	69	70	581	58	0	72	8837	0
	7970	65	49	1517	129	149	3437	0	69	70	582	58	0	71	9323	0
	7971	60	50	1517	128	149	3425	0	69	70	582	58	0	71	9254	0
	7972	66	50	1517	128	149	3455	0	69	70	579	58	0	71	9153	0
	7973	66	50	1517	128	149	3459	0	69	70	581	60	0	71	8866	0
	7974	72	50	1517	128	149	3483	0	69	70	582	56	0	71	9339	0
	7975	65	49	1517	128	149	3432	0	69	70	581	59	0	71	9424	0
	7976	66	49	1517	129	149	3393	0	69	69	577	60	0	71	9196	0
	7977	72	50	1517	129	149	3444	0	69	69	580	60	0	71	9125	0
	7978	65	49	1657	129	150	3496	0	69	70	580	59	0	71	9461	0
	7979	60	50	1517	126	150	3609	0	69	70	585	60	0	69	9481	0
	7980	65	50	1517	126	150	3531	0	69	70	584	59	0	69	9301	0
	7981	55	50	1517	126	150	3531	0	70	70	584	60	0	69	9558	0
	7982	61	50	1517	126	151	3490	0	70	74	600	58	0	69	9269	0
	7983	7	0	1517	127	151	3199	0	68	69	573	60	0	0	0	0
	7984	48	20	1517	126	151	3252	0	68	69	573	59	0	0	0	0
	7985	51	40	1517	126	151	3297	0	68	69	573	59	0	0	0	0
	7986	42	54	1517	126	151	3347	0	68	69	576	59	0	0	0	0
	7987	29	58	1517	126	151	3452	0	68	69	576	61	0	0	0	0
	7988	24	51	1517	127	151	3359	0	68	69	575	59	0	0	0	0
	7989	33	51	1517	127	151	3397	0	68	69	575	58	0	0	0	0
	7990	40	54	1517	125	150	3419	0	68	69	574	57	0	0	0	0
	7991	42	61	1376	127	150	3429	0	69	69	576	59	0	0	0	0
	7992	21	34	1376	127	150	3273	0	68	69	574	61	0	0	0	0
	7993	34	41	1376	127	150	3299	0	68	69	574	57	0	0	0	0
	7994	28	44	1384	126	150	3305	0	68	69	574	58	0	0	0	0
