~Version Information
#Data from Mudlog by Horizon Well Logging, Inc., (805)733-0972, horizon@horizon-well-logging.com
#Date Prepared 2020-12-24
#LAS format #2.0
#Generated by HorizonLog v.1.2020.9.0
#DMC Remark
#
#
~Well Information Block
#-------------------------------------------------------------------------
~WELL INFORMATION
#MNEM.UNIT   DATA                        DESCRIPTION
#-------------------------------------------------------------------------
STRT.feet                          130 : Start Depth
STOP.feet                        10987 : Stop Depth
STEP.feet                         1.00 : Depth Step
NULL.                        -999.2500 : Null Value
COMP.                        UtahForge : COMPANY
WELL.                      16A (78)-32 : WELL
FLD.                       Milford, UT : FIELD
LOC.   SEC 32 TWN 26S RNG 09W LAT: 38° : LOCATION
CNTY.                           Beaver : COUNTY
APIN.                                  : API Well Number
UWI.                                   : Unique Well Identifier
DSTRT.                      2020.10.29 : LOG DATE START
DEND.                       2020.12.24 : LOG DATE END
SRVC.       Horizon Well Logging, Inc. : SERVICE COMPANY
#-------------------------------------------------------------------------
~PARAMETER INFORMATION
#MNEM.UNIT   DATA                        DESCRIPTION
#-------------------------------------------------------------------------
FL.       SEC 32 TWN 26S RNG 09W LAT:  : Surface Location
SECT.                                  : Section
TOWN_NO.                               : Township Number
TOWN_DIR.                              : Township Direction
RANG_NO.                               : Range Number
RANGE_DIR.                             : Range Direction
X_LOC.                                 : X Surface Location
Y_LOC.                                 : Y Surface Location
EKB.feet                               : Elevation of Kelly Bushing
EGL.F                                  : Elevation of Ground Level
DMF.                                   : Drilling Measured From
TDD.feet                         10987 : Total Depth - Driller
BLI.feet                         10971 : Bottom Log Interval
TLI.feet                           130 : Top Log Interval
BS.inches                         8.75 : Bit Size
DFT.                              LSND : Drilling Fluid Type
MSS.                                   : Mud Sample Source
LUN.                                32 : Mud Logging Unit Number
R1.                                    : Remark Line 1
R2.                                    : Remark Line 2
R3.                                    : Remark Line 3
R4.                                    : Remark Line 4
R5.                                    : Remark Line 5
R6.                                    : Remark Line 6
R7.                                    : Remark Line 7
R8.                                    : Remark Line 8
R9.                                    : Remark Line 9
R10.                                   : Remark Line 10
#------------------------------------------------------------------
~Curve Information Block
#MNEM.UNIT                               DESCRIPTION
#---- ----                               -----------
DEPTH        .feet                     : Depth
MUDL_ROP     .ft/h                     : Penetration Rate
MUDL_WOB     .1000lbm                  : Weight On Bit
MUDL_CO2     .                         : CO2
MUDL_TEMPIN  .                         : Temperature In
MUDL_TEMPOUT .                         : Temperature Out
MUDL_PP      .psi                      : Pump Pressure
MUDL_SPM1    .1/min                    : Strokes Per Minute Pump #1
MUDL_SPM2    .1/min                    : Strokes Per Minute Pump #2
MUDL_SPM3    .1/min                    : Strokes Per Minute Pump #3
MUDL_FLOWIN  .gal/min                  : Flow In
MUDL_FLOWOUT .percent                  : % Flow Out
MUDL_GAINLOSS.bbls                     : Drilling Fluid Gain/Loss
MUDL_RPM     .rev/min                  : RPM
MUDL_TORQUE  .lb-ft                    : Torque
MUDL_PITVOL  .bbls                     : Pit Volume
#----------------------------------------------------------------------------------------------------------------------------
~A DEPTH  ROP  WOB  CO2  TEMPIN  TEMPOUT  PP  SPM1  SPM2  SPM3  FLOWIN  FLOWOUT%  GAINLOSS  RPM  TORQUE  PITVOL  
# ...
	5758	13	47	1247	132	149	2745	71	70	0	594	2	31	35	3670	481
	5759	4	31	1109	133	150	2674	71	70	0	590	2	43	36	3791	492
	5760	3	30	1249	134	150	2646	71	70	0	591	2	45	36	3893	495
	5761	4	30	1249	135	150	2655	71	70	0	589	2	47	37	3893	496
	5762	4	30	1249	135	151	2710	71	70	0	590	2	50	37	4020	501
	5763	3	30	1249	136	151	2657	72	70	0	593	2	47	36	3949	497
	5764	3	30	1245	136	151	2699	71	70	0	591	2	49	37	3787	498
	5765	3	31	1247	136	151	2715	71	70	0	592	2	48	37	3882	499
	5766	4	27	1249	137	151	2694	71	70	0	591	2	45	36	3961	495
	5767	3	30	1245	137	151	2744	71	70	0	590	2	45	37	4091	495
	5768	5	29	1249	137	151	2619	71	70	0	589	2	45	37	3775	495
	5769	5	30	1109	137	152	2772	71	69	0	589	2	42	37	3797	492
	5770	5	30	1109	137	152	2701	72	70	0	593	2	43	37	3812	493
	5771	5	29	1249	137	152	2667	71	70	0	593	2	37	37	3868	487
	5772	4	30	1109	137	152	2674	71	70	0	589	2	35	37	4073	485
	5773	3	30	1109	137	152	2666	71	70	0	592	2	29	36	3961	479
	5774	6	30	1249	137	152	2742	71	70	0	592	2	29	36	4166	479
	5775	3	30	1249	135	152	2793	72	70	0	594	2	-57	37	4111	393
	5776	2	30	1255	137	152	2786	71	70	0	593	2	21	37	4178	471
	5777	2	30	1249	136	150	2673	71	70	0	592	2	19	37	4107	469
	5778	2	30	1115	135	150	2794	72	70	0	593	2	7	37	3909	457
	5779	2	30	1254	135	150	2715	72	70	0	593	2	2	37	4170	452
	5780	2	30	1259	134	149	2767	72	70	0	593	2	3	37	4214	453
	5781	2	30	1258	134	149	2753	72	70	0	594	2	5	37	4140	455
	5782	4	30	1249	134	149	2712	71	70	0	592	2	10	36	4184	460
	5783	6	28	1254	134	149	2683	71	70	0	591	2	10	36	3903	460
	5784	8	29	1258	134	149	2653	71	70	0	592	2	9	37	3965	459
	5785	8	30	1260	134	149	2761	71	70	0	594	2	8	37	3735	458
	5786	6	30	1258	134	149	2739	71	70	0	593	2	7	36	3787	457
	5787	4	30	1256	134	149	2673	72	70	0	594	2	8	37	4166	458
	5788	2	30	1262	134	149	2720	72	70	0	594	2	8	36	4107	458
	5789	2	30	1262	134	149	2687	71	70	0	590	2	5	36	4239	455
	5790	2	30	1122	134	149	2690	71	70	0	593	2	2	37	4089	452
	5791	2	30	1538	133	149	2707	71	70	0	592	2	-17	37	4119	449
	5792	2	30	1673	134	148	2672	72	70	0	594	2	-5	37	4095	445
	5793	2	30	1670	133	148	2840	71	70	0	594	2	-18	36	4194	432
	5794	2	30	1678	132	147	2710	71	70	0	593	2	-25	36	4073	474
	5795	5	30	1810	131	146	2652	72	70	0	595	2	-43	36	4055	408
	5796	2	30	1810	129	146	2645	72	70	0	595	2	-114	37	3682	336
	5797	5	30	1950	130	146	2619	72	70	0	594	2	-112	36	3980	340
	5798	5	30	1948	131	145	2641	71	70	0	593	2	-110	37	4129	341
	5799	6	30	1950	130	147	2438	71	70	0	591	2	-103	37	3490	347
	5800	6	30	1950	129	147	2456	71	70	0	592	2	-109	37	3990	341
	5801	3	30	1797	130	146	2849	73	70	0	599	2	-105	37	4079	345
	5802	2	30	1939	130	146	2761	73	70	0	598	2	-102	36	4368	348
	5803	3	30	1942	130	146	2613	72	70	0	596	2	-96	37	4042	354
	5804	4	30	1937	130	146	2660	72	70	0	596	73	-95	37	3763	355
	5805	6	30	1937	130	146	2637	72	70	0	598	57	-94	36	3919	356
	5806	7	29	1937	129	146	2651	72	70	0	598	59	-90	37	3864	360
	5807	8	29	1937	129	145	2666	72	70	0	596	57	-86	36	3832	364
	5808	8	29	1937	129	145	2576	72	70	0	598	60	-82	36	3599	368
	5809	8	29	1797	129	145	2647	72	70	0	598	58	-58	36	3824	392
	5810	8	28	1662	129	144	2684	72	70	0	597	58	-62	37	3753	388
	5811	8	27	1657	129	144	2644	72	70	0	598	58	-53	37	3716	397
	5812	10	30	1662	129	144	2616	72	70	0	598	59	-49	37	4010	401
	5813	8	30	1657	128	143	2641	72	70	0	598	59	-40	36	4030	410
	5814	8	30	1657	128	143	2643	72	70	0	598	59	-36	37	3974	414
	5815	9	30	1658	128	143	2623	72	70	0	598	57	-28	36	4269	422
	5816	10	30	1666	127	143	2776	72	70	0	597	58	-24	36	4269	426
	5817	9	30	1660	127	142	2604	72	70	0	598	58	-17	36	4287	433
	5818	10	30	1663	127	142	2711	72	70	0	598	58	80	37	4415	530
	5819	10	30	1668	126	142	2656	73	70	0	599	58	79	36	3917	529
	5820	10	30	1389	126	142	2623	73	70	0	598	59	78	36	4095	528
	5821	8	30	1517	126	142	2592	73	70	0	599	59	77	36	3961	527
	5822	9	30	1670	126	142	2763	73	70	0	599	59	76	36	3781	526
	5823	9	30	1517	126	142	2611	73	70	0	598	59	75	37	3882	525
	5824	9	30	1249	127	143	2762	73	70	0	598	59	74	36	4071	524
	5825	9	30	1249	127	143	2795	73	70	0	599	59	73	36	4089	523
	5826	9	30	1246	128	142	2822	73	70	0	599	58	70	36	3729	520
	5827	8	30	1249	128	142	2719	73	70	0	598	59	67	37	4239	517
	5828	9	30	1249	128	142	2846	72	70	0	598	59	64	37	4543	514
	5829	8	30	1250	129	142	2803	73	70	0	599	59	61	36	4530	511
	5830	7	30	1116	128	143	2706	73	70	0	601	59	52	37	4291	502
	5831	9	30	1256	128	136	2764	73	70	0	599	59	48	37	4158	498
	5832	8	30	1255	128	138	2786	73	70	0	599	58	49	36	4281	499
	5833	9	30	1262	128	141	2752	72	70	0	598	59	55	37	4150	505
	5834	10	29	1262	125	140	2762	72	70	0	594	58	64	35	3720	514
	5835	12	30	1262	124	140	2781	72	70	0	595	58	61	36	3976	511
	5836	15	30	1260	124	140	2718	72	70	0	597	59	62	36	3761	512
	5837	10	30	1262	124	140	2723	72	70	0	596	58	65	36	4048	515
	5838	9	30	1258	124	140	2711	72	70	0	596	59	70	36	4081	520
	5839	8	30	1259	124	141	2671	72	70	0	595	60	73	35	4158	523
	5840	7	30	1122	124	140	2788	72	70	0	596	59	80	35	3781	530
	5841	9	30	1252	126	140	2627	72	70	0	596	59	83	36	4016	533
	5842	15	30	1259	125	140	2833	72	70	0	595	59	88	36	3927	538
	5843	11	30	1254	126	139	2691	72	70	0	596	59	91	35	3617	541
	5844	10	30	1251	125	139	2657	72	70	0	595	58	103	36	3755	553
	5845	8	30	1252	124	138	2705	72	70	0	596	60	108	36	4063	558
	5846	6	30	1258	124	139	2668	72	70	0	596	59	113	36	3767	563
	5847	5	9	1808	122	137	855	0	84	0	353	53	40	40	4544	491
	5848	3	8	1810	123	137	859	0	84	0	353	53	44	40	4717	494
	5849	2	8	1950	125	137	869	0	84	0	354	53	52	40	4543	501
	5850	2	8	1255	127	137	875	0	84	0	352	53	53	41	4660	503
	5851	2	8	1402	124	137	880	0	84	0	353	52	53	40	4763	504
	5852	2	8	1402	122	137	888	0	84	0	352	53	55	40	4757	506
	5853	2	8	1402	122	136	877	0	84	0	352	53	58	40	4435	506
	5854	1	8	1539	121	136	871	0	84	0	352	53	54	40	4530	503
	5855	1	8	1670	116	136	870	0	83	0	352	54	55	40	4544	547
	5856	5	8	1667	115	136	871	0	83	0	354	54	87	36	4824	536
	5857	62	15	1529	109	135	2177	0	72	0	300	58	49	36	5527	499
	5858	78	19	1555	109	135	2246	0	72	0	300	57	50	36	5658	500
	5859	5	3	1392	114	131	822	0	83	0	350	53	15	40	3874	465
	5860	6	4	1249	115	132	827	0	83	0	350	53	15	40	4052	465
	5861	6	4	1392	116	132	845	0	83	0	350	52	15	40	4136	465
	5862	6	4	1402	117	132	847	0	83	0	349	53	15	40	4255	465
	5863	6	4	1402	117	132	827	0	83	0	349	53	17	40	4324	467
	5864	6	5	1402	117	132	849	0	83	0	349	53	20	41	4257	470
	5865	6	4	1536	118	132	837	0	83	0	349	53	20	40	4243	470
	5866	6	5	1529	117	132	844	0	83	0	349	53	20	40	4223	470
	5867	6	5	1538	119	132	842	0	83	0	350	53	19	40	4198	470
	5868	6	4	1529	118	132	841	0	83	0	349	53	21	40	4451	470
	5869	6	5	1530	119	132	825	0	83	0	349	53	21	40	4168	471
	5870	6	5	1677	118	132	843	0	83	0	349	53	21	40	4186	471
	5871	6	4	1402	119	132	800	0	83	0	348	53	23	41	4277	473
	5872	6	3	1402	119	131	844	0	83	0	349	53	23	40	4079	473
	5873	6	5	1540	118	130	829	0	83	0	349	53	25	40	4389	475
	5874	6	4	1538	119	131	846	0	83	0	349	53	29	40	4103	480
	5875	6	4	1537	118	130	836	0	83	0	348	53	33	40	4117	483
	5876	6	5	1538	118	130	798	0	83	0	348	53	34	40	4293	485
	5877	6	6	1678	118	130	827	0	83	0	349	53	37	40	4340	486
	5878	5	6	1682	118	130	821	0	83	0	348	53	36	39	4330	486
	5879	5	6	1812	118	129	847	0	83	0	348	53	38	39	4018	488
	5880	5	5	1681	118	130	840	0	83	0	348	53	42	39	4316	492
	5881	5	5	1810	119	130	822	0	83	0	347	53	46	39	4536	497
	5882	6	5	1810	117	130	774	0	83	0	347	53	49	39	4174	499
	5883	5	5	1814	118	130	833	0	83	0	348	53	53	39	4395	503
	5884	5	6	1810	119	131	839	0	83	0	347	53	54	39	4239	505
	5885	5	6	1814	119	132	792	0	83	0	347	53	67	39	4287	517
	5886	5	6	1813	119	133	834	0	83	0	348	53	72	39	4293	522
	5887	5	6	1950	120	133	789	0	83	0	347	53	66	39	4302	516
	5888	4	6	1953	120	133	794	0	83	0	348	52	66	39	4227	516
	5889	5	6	1810	121	133	828	0	83	0	347	53	65	39	4381	516
	5890	5	6	1822	121	133	818	0	83	0	347	52	69	39	4123	519
	5891	5	6	1800	121	133	802	0	83	0	347	53	69	39	4360	519
	5892	5	6	1789	122	133	816	0	83	0	347	52	71	39	3941	521
	5893	45	15	1529	107	134	3430	0	72	0	300	60	57	20	4680	506
	5894	67	17	1678	107	136	3399	0	72	0	302	58	58	20	4488	508
	5895	38	22	1670	114	136	3011	0	65	67	554	59	62	0	0	512
