~Version Information
#Data from Mudlog by Horizon Well Logging, Inc., (805)733-0972, horizon@horizon-well-logging.com
#Date Prepared 2020-12-24
#LAS format #2.0
#Generated by HorizonLog v.1.2020.9.0
#DMC Remark
#
#
~Well Information Block
#-------------------------------------------------------------------------
~WELL INFORMATION
#MNEM.UNIT   DATA                        DESCRIPTION
#-------------------------------------------------------------------------
STRT.feet                          130 : Start Depth
STOP.feet                        10987 : Stop Depth
STEP.feet                         1.00 : Depth Step
NULL.                        -999.2500 : Null Value
COMP.                        UtahForge : COMPANY
WELL.                      16A (78)-32 : WELL
FLD.                       Milford, UT : FIELD
LOC.   SEC 32 TWN 26S RNG 09W LAT: 38° : LOCATION
CNTY.                           Beaver : COUNTY
APIN.                                  : API Well Number
UWI.                                   : Unique Well Identifier
DSTRT.                      2020.10.29 : LOG DATE START
DEND.                       2020.12.24 : LOG DATE END
SRVC.       Horizon Well Logging, Inc. : SERVICE COMPANY
#-------------------------------------------------------------------------
~PARAMETER INFORMATION
#MNEM.UNIT   DATA                        DESCRIPTION
#-------------------------------------------------------------------------
FL.       SEC 32 TWN 26S RNG 09W LAT:  : Surface Location
SECT.                                  : Section
TOWN_NO.                               : Township Number
TOWN_DIR.                              : Township Direction
RANG_NO.                               : Range Number
RANGE_DIR.                             : Range Direction
X_LOC.                                 : X Surface Location
Y_LOC.                                 : Y Surface Location
EKB.feet                               : Elevation of Kelly Bushing
EGL.F                                  : Elevation of Ground Level
DMF.                                   : Drilling Measured From
TDD.feet                         10987 : Total Depth - Driller
BLI.feet                         10971 : Bottom Log Interval
TLI.feet                           130 : Top Log Interval
BS.inches                         8.75 : Bit Size
DFT.                              LSND : Drilling Fluid Type
MSS.                                   : Mud Sample Source
LUN.                                32 : Mud Logging Unit Number
R1.                                    : Remark Line 1
R2.                                    : Remark Line 2
R3.                                    : Remark Line 3
R4.                                    : Remark Line 4
R5.                                    : Remark Line 5
R6.                                    : Remark Line 6
R7.                                    : Remark Line 7
R8.                                    : Remark Line 8
R9.                                    : Remark Line 9
R10.                                   : Remark Line 10
#------------------------------------------------------------------
~Curve Information Block
#MNEM.UNIT                               DESCRIPTION
#---- ----                               -----------
DEPTH        .feet                     : Depth
MUDL_ROP     .ft/h                     : Penetration Rate
MUDL_WOB     .1000lbm                  : Weight On Bit
MUDL_CO2     .                         : CO2
MUDL_TEMPIN  .                         : Temperature In
MUDL_TEMPOUT .                         : Temperature Out
MUDL_PP      .psi                      : Pump Pressure
MUDL_SPM1    .1/min                    : Strokes Per Minute Pump #1
MUDL_SPM2    .1/min                    : Strokes Per Minute Pump #2
MUDL_SPM3    .1/min                    : Strokes Per Minute Pump #3
MUDL_FLOWIN  .gal/min                  : Flow In
MUDL_FLOWOUT .percent                  : % Flow Out
MUDL_GAINLOSS.bbls                     : Drilling Fluid Gain/Loss
MUDL_RPM     .rev/min                  : RPM
MUDL_TORQUE  .lb-ft                    : Torque
MUDL_PITVOL  .bbls                     : Pit Volume
#----------------------------------------------------------------------------------------------------------------------------
~A DEPTH  ROP  WOB  CO2  TEMPIN  TEMPOUT  PP  SPM1  SPM2  SPM3  FLOWIN  FLOWOUT%  GAINLOSS  RPM  TORQUE  PITVOL  
# ...
	7143	16	60	1287	129	150	3317	67	67	0	564	58	92	0	0	542
	7144	17	62	1287	129	149	3370	67	67	0	565	58	92	0	0	543
	7145	17	62	1427	129	151	3308	67	67	0	564	59	92	0	0	542
	7146	15	62	1428	129	151	3305	67	67	0	564	56	93	0	0	543
	7147	16	62	1435	129	151	3392	67	67	0	569	58	93	0	0	543
	7148	18	62	1435	129	151	3369	68	68	0	569	58	92	0	0	542
	7149	14	62	1427	129	150	3408	67	67	0	569	58	92	0	0	542
	7150	17	62	1400	129	150	3323	67	67	0	564	59	90	0	0	540
	7151	12	55	1427	129	150	3299	67	67	0	562	61	91	0	0	541
	7152	10	43	1434	129	150	3535	68	68	0	567	58	93	49	7657	543
	7153	45	50	1436	129	150	3535	70	68	0	580	60	94	49	7928	543
	7154	45	50	1436	129	150	3474	70	68	0	580	59	94	49	7734	544
	7155	45	50	1436	129	150	3454	70	68	0	580	59	94	49	7586	544
	7156	45	50	1434	129	150	3529	68	67	0	580	58	95	49	8250	545
	7157	45	50	1427	129	150	3472	68	68	0	569	59	95	49	8043	545
	7158	42	50	1436	129	150	3487	68	68	0	568	58	95	48	8278	545
	7159	40	49	1430	129	150	3532	68	67	0	566	56	92	49	7912	541
	7160	51	50	1440	129	150	3505	68	68	0	568	58	88	49	7614	539
	7161	45	50	1431	129	150	3514	68	68	0	568	58	89	49	7750	539
	7162	40	50	1149	129	150	3421	67	67	0	566	58	88	49	7758	538
	7163	43	50	1156	129	150	3509	68	67	0	566	56	89	49	7365	539
	7164	45	50	1154	129	150	3473	68	67	0	566	60	88	49	7142	539
	7165	38	50	1147	129	150	3432	68	68	0	567	59	88	49	7756	539
	7166	42	50	1150	129	150	3500	68	68	0	568	56	88	49	7260	538
	7167	40	50	1290	129	150	3460	68	68	0	569	58	88	49	7924	538
	7168	45	50	1287	129	150	3469	68	68	0	568	58	88	49	7248	538
	7169	40	50	1290	129	150	3422	67	68	0	566	59	88	49	7232	538
	7170	55	48	1288	128	150	3335	67	67	0	564	58	85	50	7434	535
	7171	58	46	1287	127	150	3425	67	67	0	565	60	85	50	7418	535
	7172	45	50	1294	128	150	3522	68	68	0	568	58	85	50	7649	535
	7173	48	50	1294	128	150	3461	68	67	0	566	59	85	50	7835	535
	7174	42	50	1288	128	150	3478	68	68	0	567	58	84	50	7709	534
	7175	40	50	1287	128	150	3424	68	68	0	568	59	85	50	8197	535
	7176	40	50	1296	128	150	3471	68	67	0	566	58	84	51	6999	534
	7177	45	50	1290	128	150	3449	68	68	0	567	58	84	49	7724	534
	7178	40	50	1290	128	150	3412	68	67	0	566	58	84	50	7879	534
	7179	40	50	1288	129	150	3509	69	68	0	568	58	84	50	7568	533
	7180	40	50	1294	127	150	3532	69	68	0	567	59	83	50	7724	534
	7181	40	50	1290	128	150	3465	69	67	0	575	58	83	50	7529	533
	7182	42	50	1296	128	150	3448	68	67	0	575	58	83	50	7590	533
	7183	43	50	1287	129	151	3489	68	67	0	566	58	83	49	8037	533
	7184	42	50	1296	127	151	3469	68	67	0	566	58	83	50	7851	533
	7185	36	51	1287	128	151	3434	68	67	0	566	60	84	50	7663	534
	7186	40	50	1287	129	151	3464	68	67	0	566	59	83	50	8031	533
	7187	40	50	1294	127	151	3437	68	67	0	566	60	83	50	8041	533
	7188	38	50	1290	129	151	3436	68	68	0	567	56	83	50	8153	533
	7189	40	50	1290	129	151	3435	68	67	0	566	60	83	50	7659	533
	7190	40	50	1287	129	151	3502	67	67	0	566	60	83	50	8003	533
	7191	38	51	1440	129	150	3453	68	68	0	567	58	83	51	7756	533
	7192	42	50	1439	128	149	3468	68	68	0	568	58	83	50	8232	533
	7193	38	50	1568	129	150	3382	68	68	0	569	59	82	50	7527	532
	7194	40	50	1568	129	150	3392	68	68	0	567	58	82	50	7817	532
	7195	40	50	1568	129	150	3514	68	68	0	568	59	83	50	7276	532
	7196	40	50	1568	127	150	3523	68	68	0	568	59	81	50	7709	531
	7197	40	50	1434	129	150	3453	67	67	0	565	60	81	50	7946	531
	7198	42	50	1435	129	150	3520	68	67	0	565	61	81	50	7794	531
	7199	42	50	1432	129	150	3486	68	68	0	569	59	81	50	7960	531
	7200	43	49	1432	129	151	3469	67	67	0	569	58	81	51	7699	531
	7201	42	50	1434	128	151	3532	67	67	0	569	58	80	50	7944	530
	7202	40	50	1568	129	151	3501	68	68	0	568	59	81	50	8048	531
	7203	42	50	1568	129	151	3469	68	68	0	567	59	80	50	8135	530
	7204	40	50	1436	129	151	3424	68	68	0	568	59	80	50	7426	530
	7205	42	50	1435	129	151	3459	67	67	0	565	60	80	50	7485	530
	7206	36	50	1427	128	151	3446	67	68	0	566	59	78	49	7608	528
	7207	31	51	1436	127	151	3431	68	68	0	568	59	78	49	7244	528
	7208	36	50	1437	128	151	3425	67	68	0	566	59	78	49	8307	528
	7209	36	50	1440	127	151	3504	68	68	0	567	59	79	49	8041	529
	7210	33	50	1568	128	151	3440	67	67	0	564	58	78	49	7665	528
	7211	13	46	1568	128	151	3260	67	67	0	564	57	80	0	0	530
	7212	15	55	1568	127	151	3273	67	67	0	563	60	79	0	0	529
	7213	14	59	1708	127	151	3253	68	67	0	559	60	79	0	0	528
	7214	13	61	1708	128	151	3291	68	68	0	559	58	72	0	0	521
	7215	13	62	1568	127	151	3282	68	68	0	559	58	72	0	0	522
	7216	13	63	1708	127	151	3303	67	67	0	566	59	71	0	0	521
	7217	13	63	1708	129	151	3288	67	67	0	565	59	70	0	0	521
	7218	13	62	1708	129	151	3213	67	67	0	565	58	71	0	0	521
	7219	12	63	1708	129	150	3309	68	68	0	567	58	71	0	0	521
	7220	11	64	1568	129	150	3297	67	67	0	565	58	71	0	0	522
	7221	13	63	1708	129	147	3257	67	68	0	566	59	72	0	0	521
	7222	11	50	1708	127	146	3404	68	68	0	568	60	71	50	8124	521
	7223	30	50	1708	128	147	3439	68	67	0	566	55	71	49	7695	521
	7224	34	50	1708	128	147	3415	68	68	0	567	59	71	49	7881	521
	7225	36	50	1708	129	147	3522	68	68	0	570	59	72	49	7811	522
	7226	34	50	1708	128	148	3437	68	68	0	566	58	73	49	7877	522
	7227	33	50	1848	128	147	3405	68	67	0	566	59	73	50	7989	523
	7228	34	50	1848	129	147	3367	67	68	0	566	58	74	50	7904	524
	7229	34	50	1708	128	148	3388	67	68	0	566	59	74	50	8009	524
	7230	36	50	1708	129	149	3361	68	67	0	565	56	74	51	7345	524
	7231	15	29	1708	128	149	3315	68	67	0	566	58	77	0	0	527
	7232	21	50	1708	127	149	3316	68	67	0	565	57	77	0	0	527
	7233	10	42	1708	128	149	3211	68	67	0	566	59	77	0	0	527
	7234	19	48	1988	128	149	3307	68	67	0	565	57	77	0	0	527
	7235	17	55	2124	129	149	3278	68	67	0	565	58	77	0	0	527
	7236	19	58	1988	129	149	3378	67	67	0	564	62	77	0	0	527
	7237	18	59	1848	128	148	3340	68	67	0	566	58	80	0	0	530
	7238	19	58	1708	127	148	3326	67	67	0	569	59	80	0	0	530
	7239	17	51	1708	129	148	3424	68	68	0	569	59	81	49	7794	531
	7240	33	50	1708	129	148	3412	68	68	0	569	59	81	50	7396	531
	7241	34	50	1708	128	148	3424	68	67	0	565	58	82	49	7659	532
	7242	34	50	1708	128	148	3417	68	68	0	567	59	81	48	8256	532
	7243	36	50	1708	129	148	3438	68	67	0	565	58	82	50	7450	532
	7244	34	50	1708	129	148	3426	68	68	0	567	59	82	50	7570	532
	7245	34	50	1708	128	148	3406	68	68	0	568	59	83	50	7679	533
	7246	38	50	1708	129	148	3442	68	68	0	567	59	83	49	8254	533
	7247	34	50	1708	128	148	3422	67	67	0	565	59	84	49	8029	534
	7248	36	50	1708	129	148	3376	68	68	0	567	58	84	49	8212	534
	7249	34	50	1708	128	150	3458	68	68	0	568	58	85	50	7663	535
	7250	31	50	1708	128	149	3406	67	68	0	566	60	86	49	7363	535
	7251	34	50	1708	128	147	3431	68	68	0	567	59	86	49	7803	536
	7252	33	50	1708	128	146	3436	67	68	0	566	59	86	49	7875	536
	7253	34	50	1708	128	147	3384	68	67	0	566	61	87	49	8521	537
	7254	33	50	1708	128	148	3365	68	68	0	566	59	88	49	8161	538
	7255	31	50	1708	128	148	3383	67	68	0	564	61	89	49	8157	539
	7256	33	50	1709	128	148	3428	68	68	0	569	58	89	49	8248	539
	7257	31	50	1708	128	147	3394	68	68	0	569	58	90	49	7659	540
	7258	31	50	1710	128	147	3374	68	67	0	569	59	90	49	8205	540
	7259	31	50	1708	128	147	3463	68	68	0	569	59	85	49	7762	535
	7260	34	50	1708	128	148	3392	68	68	0	575	58	83	49	7776	533
	7261	34	50	1708	128	148	3479	68	68	0	575	58	84	49	8139	534
	7262	36	50	1708	128	147	3435	68	68	0	575	59	85	49	8341	535
	7263	33	50	1434	126	148	3252	67	67	0	580	58	89	49	7074	539
	7264	40	50	1440	125	148	3428	67	68	0	566	59	89	49	8062	539
	7265	38	50	1440	126	148	3398	67	67	0	565	58	89	49	7517	539
	7266	36	50	1568	125	148	3414	68	67	0	566	59	89	49	7896	539
	7267	38	50	1568	125	147	3440	68	68	0	566	58	89	49	7886	539
	7268	34	50	1568	125	147	3388	68	67	0	567	60	89	50	7815	539
	7269	34	50	1572	125	148	3393	67	67	0	564	57	90	49	7977	540
	7270	36	50	1515	126	148	3362	68	68	0	566	58	90	49	7837	541
	7271	38	51	1515	126	148	3462	68	68	0	567	59	91	49	7738	541
	7272	36	50	1515	127	148	3394	68	67	0	566	59	91	49	8124	542
	7273	38	50	1575	127	148	3424	68	68	0	564	58	91	49	7805	541
	7274	40	50	1575	127	148	3487	68	67	0	564	59	91	49	7912	541
	7275	36	50	1590	126	148	3495	68	68	0	564	58	92	48	8770	542
	7276	38	50	1590	126	148	3413	68	68	0	566	60	91	49	8420	541
	7277	36	50	1560	127	148	3400	68	68	0	569	59	91	49	7768	541
	7278	33	50	1545	127	148	3474	68	68	0	567	60	92	49	8205	542
