~Version Information
#Data from Mudlog by Horizon Well Logging, Inc., (805)733-0972, horizon@horizon-well-logging.com
#Date Prepared 2020-12-24
#LAS format #2.0
#Generated by HorizonLog v.1.2020.9.0
#DMC Remark
#
#
~Well Information Block
#-------------------------------------------------------------------------
~WELL INFORMATION
#MNEM.UNIT   DATA                        DESCRIPTION
#-------------------------------------------------------------------------
STRT.feet                          130 : Start Depth
STOP.feet                        10987 : Stop Depth
STEP.feet                         1.00 : Depth Step
NULL.                        -999.2500 : Null Value
COMP.                        UtahForge : COMPANY
WELL.                      16A (78)-32 : WELL
FLD.                       Milford, UT : FIELD
LOC.   SEC 32 TWN 26S RNG 09W LAT: 38° : LOCATION
CNTY.                           Beaver : COUNTY
APIN.                                  : API Well Number
UWI.                                   : Unique Well Identifier
DSTRT.                      2020.10.29 : LOG DATE START
DEND.                       2020.12.24 : LOG DATE END
SRVC.       Horizon Well Logging, Inc. : SERVICE COMPANY
#-------------------------------------------------------------------------
~PARAMETER INFORMATION
#MNEM.UNIT   DATA                        DESCRIPTION
#-------------------------------------------------------------------------
FL.       SEC 32 TWN 26S RNG 09W LAT:  : Surface Location
SECT.                                  : Section
TOWN_NO.                               : Township Number
TOWN_DIR.                              : Township Direction
RANG_NO.                               : Range Number
RANGE_DIR.                             : Range Direction
X_LOC.                                 : X Surface Location
Y_LOC.                                 : Y Surface Location
EKB.feet                               : Elevation of Kelly Bushing
EGL.F                                  : Elevation of Ground Level
DMF.                                   : Drilling Measured From
TDD.feet                         10987 : Total Depth - Driller
BLI.feet                         10971 : Bottom Log Interval
TLI.feet                           130 : Top Log Interval
BS.inches                         8.75 : Bit Size
DFT.                              LSND : Drilling Fluid Type
MSS.                                   : Mud Sample Source
LUN.                                32 : Mud Logging Unit Number
R1.                                    : Remark Line 1
R2.                                    : Remark Line 2
R3.                                    : Remark Line 3
R4.                                    : Remark Line 4
R5.                                    : Remark Line 5
R6.                                    : Remark Line 6
R7.                                    : Remark Line 7
R8.                                    : Remark Line 8
R9.                                    : Remark Line 9
R10.                                   : Remark Line 10
#------------------------------------------------------------------
~Curve Information Block
#MNEM.UNIT                               DESCRIPTION
#---- ----                               -----------
DEPTH        .feet                     : Depth
MUDL_ROP     .ft/h                     : Penetration Rate
MUDL_WOB     .1000lbm                  : Weight On Bit
MUDL_CO2     .                         : CO2
MUDL_TEMPIN  .                         : Temperature In
MUDL_TEMPOUT .                         : Temperature Out
MUDL_PP      .psi                      : Pump Pressure
MUDL_SPM1    .1/min                    : Strokes Per Minute Pump #1
MUDL_SPM2    .1/min                    : Strokes Per Minute Pump #2
MUDL_SPM3    .1/min                    : Strokes Per Minute Pump #3
MUDL_FLOWIN  .gal/min                  : Flow In
MUDL_FLOWOUT .percent                  : % Flow Out
MUDL_GAINLOSS.bbls                     : Drilling Fluid Gain/Loss
MUDL_RPM     .rev/min                  : RPM
MUDL_TORQUE  .lb-ft                    : Torque
MUDL_PITVOL  .bbls                     : Pit Volume
#----------------------------------------------------------------------------------------------------------------------------
~A DEPTH  ROP  WOB  CO2  TEMPIN  TEMPOUT  PP  SPM1  SPM2  SPM3  FLOWIN  FLOWOUT%  GAINLOSS  RPM  TORQUE  PITVOL  
# ...
	10848	65	40	1325	96	126	4343	0	78	78	652	60	0	59	13302	0
	10849	60	40	1325	96	126	4446	0	78	77	650	59	0	59	13253	0
	10850	72	40	1325	96	126	4286	0	79	78	654	60	0	59	13178	0
	10851	66	40	1325	95	126	4388	0	78	77	650	60	0	59	14171	0
	10852	65	40	1325	96	126	4357	0	79	77	654	60	0	59	13903	0
	10853	65	40	1325	96	126	4363	0	78	77	651	60	0	58	13960	0
	10854	73	40	1325	96	126	4414	0	79	78	655	62	0	58	13839	0
	10855	72	40	1325	96	126	4387	0	79	78	655	60	0	57	13962	0
	10856	81	40	1325	95	126	4334	0	78	77	651	57	0	58	13521	0
	10857	72	40	1325	95	126	4277	0	78	77	651	60	0	58	13897	0
	10858	73	40	1325	95	126	4400	0	79	78	655	60	0	58	13994	0
	10859	72	40	1325	95	126	4315	0	79	77	654	59	0	58	13974	0
	10860	79	40	1325	95	126	4254	0	78	78	653	60	0	58	13812	0
	10861	73	40	1325	95	126	4297	0	79	77	653	60	0	57	13450	0
	10862	79	40	3651	96	126	4377	0	78	77	651	60	0	57	13648	0
	10863	81	40	3772	95	126	4433	0	79	78	654	60	0	58	13322	0
	10864	65	40	1325	95	126	4242	0	77	77	645	60	0	59	14266	0
	10865	60	40	1325	94	126	4304	0	77	77	646	59	0	59	14363	0
	10866	73	40	1325	94	126	4331	0	77	77	646	58	0	59	14237	0
	10867	72	40	1325	94	126	4356	0	77	77	646	58	0	59	13954	0
	10868	60	40	1325	94	126	4281	0	77	77	645	59	0	59	14274	0
	10869	73	40	1325	95	126	4364	0	77	77	646	58	0	59	13513	0
	10870	55	40	1325	94	126	4327	0	77	77	643	60	0	59	14191	0
	10871	72	40	1325	94	126	4336	0	77	77	644	60	0	59	13741	0
	10872	72	40	1326	94	126	4360	0	77	77	646	60	0	59	14219	0
	10873	66	40	1325	94	126	4405	0	77	77	643	60	0	58	14219	0
	10874	65	40	1325	94	126	4317	0	78	77	647	59	0	59	13997	0
	10875	61	40	1325	94	126	4366	0	77	77	647	61	0	59	13488	0
	10876	72	40	1325	95	126	4337	0	77	77	645	60	0	59	14118	0
	10877	72	40	1325	94	126	4370	0	77	77	644	61	0	59	13889	0
	10878	61	40	1325	94	126	4327	0	77	77	646	61	0	59	14152	0
	10879	65	40	1325	94	126	4392	0	77	77	646	60	0	58	13903	0
	10880	60	40	1326	95	126	4364	0	77	77	645	59	0	59	14221	0
	10881	66	40	1325	95	126	4416	0	77	77	645	60	0	59	14179	0
	10882	60	40	1325	95	126	4468	0	77	77	647	60	0	58	14015	0
	10883	65	40	1325	95	126	4383	0	77	77	646	60	0	59	13549	0
	10884	60	40	1325	95	126	4306	0	77	77	644	60	0	59	13924	0
	10885	65	40	1325	96	126	4283	0	78	77	647	61	0	59	14059	0
	10886	60	40	1325	95	126	4344	0	78	77	649	60	0	65	13666	0
	10887	65	40	1325	95	126	4300	0	77	77	646	59	0	65	14244	0
	10888	66	40	1325	96	126	4443	0	77	77	644	60	0	65	14049	0
	10889	72	40	1325	96	126	4352	0	77	77	648	60	0	65	14568	0
	10890	61	40	1325	96	126	4340	0	77	77	644	59	0	65	14533	0
	10891	65	40	1325	95	126	4360	0	77	77	646	60	0	65	14418	0
	10892	72	40	1325	96	126	4418	0	77	77	646	60	0	65	14448	0
	10893	60	40	1325	95	126	4436	0	78	77	647	61	0	65	14298	0
	10894	61	40	1329	95	126	4435	0	77	77	644	62	0	65	14523	0
	10895	60	40	1325	96	126	4338	0	77	77	648	61	0	65	14744	0
	10896	60	40	1325	96	126	4447	0	77	77	644	60	0	65	14096	0
	10897	61	40	1325	95	126	4393	0	77	77	646	61	0	65	14361	0
	10898	60	40	1325	96	126	4320	0	77	77	646	61	0	65	14316	0
	10899	60	40	1325	96	126	4426	0	77	77	644	58	0	65	14412	0
	10900	55	40	1325	95	126	4289	0	77	77	646	60	0	65	14391	0
	10901	66	40	1325	95	126	4369	0	77	77	647	61	0	70	14351	0
	10902	60	40	1325	96	126	4371	0	77	77	646	61	0	70	14527	0
	10903	65	40	1325	95	126	4377	0	77	77	645	58	0	70	14345	0
	10904	61	40	1325	95	126	4418	0	77	77	644	62	0	70	14582	0
	10905	65	40	1325	95	126	4412	0	77	77	642	62	0	70	14438	0
	10906	60	40	1472	95	126	4283	0	77	77	647	61	0	70	14640	0
	10907	66	40	1466	95	126	4397	0	77	77	645	60	0	70	14529	0
	10908	60	40	1468	96	127	4428	0	77	77	646	60	0	70	14476	0
	10909	60	40	1325	95	127	4383	0	77	77	645	60	0	70	14347	0
	10910	55	40	1325	96	127	4385	0	77	77	643	59	0	70	14021	0
	10911	60	40	1325	95	127	4411	0	77	77	646	60	0	70	14489	0
	10912	56	40	1325	95	127	4403	0	77	77	645	61	0	70	14339	0
	10913	60	40	1325	95	127	4415	0	77	77	644	61	0	65	14294	0
	10914	61	40	1325	95	127	4335	0	77	77	644	60	0	65	14393	0
	10915	55	40	1325	96	126	4406	0	77	77	647	59	0	65	14541	0
	10916	60	40	1325	95	126	4417	0	77	77	646	60	0	61	14011	0
	10917	66	40	1325	95	126	4349	0	77	77	645	59	0	61	14493	0
	10918	60	40	1325	96	127	4409	0	77	77	644	60	0	61	14335	0
	10919	72	40	1325	96	126	4453	0	77	77	645	59	0	61	14201	0
	10920	73	40	1325	96	126	4373	0	77	77	646	58	0	61	14272	0
	10921	65	40	1325	96	126	4374	0	77	77	646	59	0	61	14017	0
	10922	65	40	1325	96	126	4439	0	77	77	646	61	0	61	14456	0
	10923	66	40	1325	96	126	4310	0	77	77	645	60	0	61	14493	0
	10924	65	40	1325	95	126	4427	0	77	77	646	60	0	60	14701	0
	10925	66	40	1325	96	126	4302	0	77	77	646	60	0	61	14098	0
	10926	60	40	1325	96	114	4342	0	77	77	646	60	0	61	14357	0
	10927	55	40	1325	96	125	4492	0	77	77	646	57	0	61	14213	0
	10928	55	40	1325	95	126	4439	0	77	77	646	60	0	61	14600	0
	10929	51	40	1325	95	126	4400	0	77	77	643	61	0	61	14391	0
	10930	52	40	1325	95	126	4364	0	77	77	644	60	0	61	14434	0
	10931	48	40	1325	96	121	4430	0	77	77	644	60	0	61	14640	0
	10932	55	40	1325	96	117	4301	0	77	77	644	59	0	61	14466	0
	10933	65	40	1325	95	125	4457	0	77	77	644	61	0	60	14614	0
	10934	60	40	1325	95	125	4417	0	77	77	643	58	0	61	14480	0
	10935	56	40	1325	96	126	4302	0	77	77	645	59	0	61	14412	0
	10936	65	40	1325	96	126	4422	0	77	77	646	60	0	61	14438	0
	10937	55	40	1325	95	126	4352	0	77	77	644	60	0	61	14675	0
	10938	61	40	1325	95	126	4471	0	77	77	644	62	0	61	14353	0
	10939	65	40	1325	96	126	4364	0	77	77	645	60	0	61	14258	0
	10940	66	40	1325	96	125	4445	0	77	77	647	60	0	61	14772	0
	10941	71	40	1325	95	125	4382	0	77	77	646	60	0	61	14632	0
	10942	72	40	1325	96	125	4445	0	77	77	643	60	0	55	14051	0
	10943	73	40	1325	95	125	4370	0	77	77	646	60	0	56	14049	0
	10944	65	40	1325	95	125	4382	0	77	77	645	59	0	55	14454	0
	10945	73	40	1325	96	125	4434	0	78	77	648	60	0	55	14545	0
	10946	80	40	1325	96	125	4407	0	77	77	646	61	0	55	14406	0
	10947	72	40	1325	95	125	4401	0	77	77	643	61	0	55	14264	0
	10948	66	40	1325	96	125	4326	0	77	77	644	60	0	55	14628	0
	10949	72	40	1325	95	125	4462	0	77	77	644	58	0	55	14395	0
	10950	65	40	1325	96	125	4352	0	77	77	646	60	0	55	14960	0
	10951	60	40	1325	95	125	4304	0	77	77	645	61	0	55	14357	0
	10952	73	40	1325	96	125	4366	0	77	77	646	61	0	56	14171	0
	10953	65	40	1325	96	125	4437	0	77	77	645	59	0	55	14349	0
	10954	73	40	1325	96	125	4438	0	77	77	646	61	0	55	14399	0
	10955	65	40	1325	95	125	4307	0	77	77	646	60	0	56	13476	0
	10956	0	8	1325	82	119	4408	58	77	78	650	56	0	56	13752	0
	10957	7	7	1325	83	119	4360	61	77	77	644	60	0	55	14156	0
	10958	6	8	1185	84	119	4362	58	77	77	645	59	0	55	14124	0
	10959	6	8	1185	85	119	4340	82	77	77	645	60	0	55	14379	0
	10960	5	8	1185	86	119	4353	82	77	77	643	58	0	54	14264	0
	10961	5	8	1185	87	120	3122	82	74	51	867	68	0	42	9710	0
	10962	6	7	1185	88	119	3139	82	74	51	867	71	0	41	14256	0
	10963	5	8	1185	88	118	3184	82	74	51	868	69	0	41	10516	0
	10964	5	8	1188	88	119	3092	82	74	51	867	67	0	40	11427	0
	10965	5	8	1185	88	119	976	0	74	51	524	45	0	41	12510	0
	10966	5	8	1186	89	119	3132	82	74	51	868	67	0	41	11640	0
	10967	5	8	1198	88	119	3112	82	74	51	867	69	0	41	12925	0
	10968	4	8	1190	88	121	3186	82	74	51	867	66	0	41	12842	0
	10969	4	8	1194	88	97	1022	0	74	51	524	46	0	41	11998	0
	10970	3	8	1328	88	122	1021	0	74	51	524	45	0	40	11589	0
	10971	3	8	1328	87	122	1011	0	74	51	524	44	0	41	12852	0
	10972	0	1	1432	76	117	3279	75	74	51	838	14	0	51	10564	0
	10973	103	4	1325	76	106	3230	75	74	51	839	14	0	51	10955	0
	10974	0	0	1325	66	105	800	44	74	51	709	55	0	41	8201	0
	10975	10	3	1325	68	106	829	44	74	51	710	56	0	41	7651	0
	10976	4	6	1325	70	106	884	44	74	51	710	56	0	41	7051	0
	10977	3	6	1325	72	107	889	44	74	51	710	56	0	42	6191	0
	10978	3	7	1325	73	108	899	44	74	51	710	55	0	41	5966	0
	10979	4	7	1325	74	108	890	44	74	51	709	56	0	42	5794	0
	10980	5	7	1325	75	107	868	44	74	51	709	56	0	41	6794	0
	10981	4	7	1325	75	107	873	44	74	51	709	56	0	42	6375	0
	10982	3	7	1325	75	108	913	44	74	51	710	55	0	41	6634	0
	10983	3	8	1325	77	116	893	0	74	51	524	54	0	41	6841	0
	10984	3	8	1325	77	116	886	43	42	0	356	55	0	41	5741	0
	10985	3	9	1325	78	119	874	44	42	0	353	56	0	42	5492	0
	10986	4	9	1325	79	123	881	44	41	0	358	55	0	42	5891	0
	10987	2	10	0	80	0	748	44	41	0	358	54	0	42	4656	0
