~Version Information
#Data from Mudlog by Horizon Well Logging, Inc., (805)733-0972, horizon@horizon-well-logging.com
#Date Prepared 2020-12-24
#LAS format #2.0
#Generated by HorizonLog v.1.2020.9.0
#DMC Remark
#
#
~Well Information Block
#-------------------------------------------------------------------------
~WELL INFORMATION
#MNEM.UNIT   DATA                        DESCRIPTION
#-------------------------------------------------------------------------
STRT.feet                          130 : Start Depth
STOP.feet                        10987 : Stop Depth
STEP.feet                         1.00 : Depth Step
NULL.                        -999.2500 : Null Value
COMP.                        UtahForge : COMPANY
WELL.                      16A (78)-32 : WELL
FLD.                       Milford, UT : FIELD
LOC.   SEC 32 TWN 26S RNG 09W LAT: 38° : LOCATION
CNTY.                           Beaver : COUNTY
APIN.                                  : API Well Number
UWI.                                   : Unique Well Identifier
DSTRT.                      2020.10.29 : LOG DATE START
DEND.                       2020.12.24 : LOG DATE END
SRVC.       Horizon Well Logging, Inc. : SERVICE COMPANY
#-------------------------------------------------------------------------
~PARAMETER INFORMATION
#MNEM.UNIT   DATA                        DESCRIPTION
#-------------------------------------------------------------------------
FL.       SEC 32 TWN 26S RNG 09W LAT:  : Surface Location
SECT.                                  : Section
TOWN_NO.                               : Township Number
TOWN_DIR.                              : Township Direction
RANG_NO.                               : Range Number
RANGE_DIR.                             : Range Direction
X_LOC.                                 : X Surface Location
Y_LOC.                                 : Y Surface Location
EKB.feet                               : Elevation of Kelly Bushing
EGL.F                                  : Elevation of Ground Level
DMF.                                   : Drilling Measured From
TDD.feet                         10987 : Total Depth - Driller
BLI.feet                         10971 : Bottom Log Interval
TLI.feet                           130 : Top Log Interval
BS.inches                         8.75 : Bit Size
DFT.                              LSND : Drilling Fluid Type
MSS.                                   : Mud Sample Source
LUN.                                32 : Mud Logging Unit Number
R1.                                    : Remark Line 1
R2.                                    : Remark Line 2
R3.                                    : Remark Line 3
R4.                                    : Remark Line 4
R5.                                    : Remark Line 5
R6.                                    : Remark Line 6
R7.                                    : Remark Line 7
R8.                                    : Remark Line 8
R9.                                    : Remark Line 9
R10.                                   : Remark Line 10
#------------------------------------------------------------------
~Curve Information Block
#MNEM.UNIT                               DESCRIPTION
#---- ----                               -----------
DEPTH        .feet                     : Depth
MUDL_ROP     .ft/h                     : Penetration Rate
MUDL_WOB     .1000lbm                  : Weight On Bit
MUDL_CO2     .                         : CO2
MUDL_TEMPIN  .                         : Temperature In
MUDL_TEMPOUT .                         : Temperature Out
MUDL_PP      .psi                      : Pump Pressure
MUDL_SPM1    .1/min                    : Strokes Per Minute Pump #1
MUDL_SPM2    .1/min                    : Strokes Per Minute Pump #2
MUDL_SPM3    .1/min                    : Strokes Per Minute Pump #3
MUDL_FLOWIN  .gal/min                  : Flow In
MUDL_FLOWOUT .percent                  : % Flow Out
MUDL_GAINLOSS.bbls                     : Drilling Fluid Gain/Loss
MUDL_RPM     .rev/min                  : RPM
MUDL_TORQUE  .lb-ft                    : Torque
MUDL_PITVOL  .bbls                     : Pit Volume
#----------------------------------------------------------------------------------------------------------------------------
~A DEPTH  ROP  WOB  CO2  TEMPIN  TEMPOUT  PP  SPM1  SPM2  SPM3  FLOWIN  FLOWOUT%  GAINLOSS  RPM  TORQUE  PITVOL  
# ...
	1557	186	9	701	103	109	1483	84	0	84	720	54	-44	37	1789	406
	1558	172	11	701	103	109	1521	84	0	84	720	56	-44	33	2284	406
	1559	211	11	701	103	109	1485	84	0	84	704	55	-44	38	1141	406
	1560	177	11	701	103	109	1503	82	0	84	698	57	-44	38	3896	406
	1561	183	11	701	104	109	1458	83	0	84	701	57	-44	36	2553	406
	1562	193	9	701	103	109	1420	83	0	84	702	57	-44	37	2211	406
	1563	187	8	701	103	109	1407	83	0	84	701	58	-44	42	570	406
	1564	150	16	701	103	109	1553	85	0	84	709	59	-44	36	2241	406
	1565	126	14	701	103	109	1422	82	0	84	698	55	-44	35	1542	406
	1566	180	14	701	103	109	1526	83	0	84	702	59	-44	37	1260	406
	1567	204	13	701	103	109	1769	82	0	84	696	55	-45	31	5511	405
	1568	162	14	701	103	110	1556	82	0	84	715	56	-45	43	1955	405
	1569	102	12	701	103	109	1559	84	0	84	715	57	-45	39	2877	405
	1570	178	15	701	103	109	1798	84	0	84	715	56	-45	40	3653	405
	1571	164	16	701	103	109	1569	83	0	84	715	57	-45	34	2057	405
	1572	177	10	701	103	109	1487	83	0	84	715	55	-45	38	2026	405
	1573	181	16	701	104	111	1535	83	0	84	715	56	-45	40	999	405
	1574	3	5	701	104	111	1446	83	0	84	709	58	-56	49	2038	394
	1575	150	6	701	104	111	1318	83	0	84	704	59	-56	47	3270	394
	1576	181	7	701	104	111	1355	83	0	84	704	58	-56	46	2776	394
	1577	177	8	701	104	111	1477	83	0	84	704	59	-56	52	1591	394
	1578	177	7	701	104	111	1513	83	0	84	699	58	-57	48	2571	393
	1579	186	3	701	104	111	1388	83	0	84	699	58	-57	48	2150	393
	1580	177	8	689	104	112	1444	82	0	84	699	56	-56	50	1745	394
	1581	183	9	696	104	112	1462	83	0	84	699	58	-57	51	1933	393
	1582	183	15	696	104	112	1582	83	0	84	699	58	-57	53	2964	393
	1583	35	20	701	104	111	1545	83	0	84	699	57	-56	51	2646	394
	1584	113	18	701	104	112	1613	82	0	84	699	57	-56	42	6192	394
	1585	182	17	701	104	112	1531	82	0	84	699	57	-56	48	6017	394
	1586	32	20	701	104	112	1528	82	0	84	699	58	-56	50	3019	394
	1587	183	16	701	104	111	1549	82	0	84	711	58	-56	52	1234	394
	1588	181	11	701	104	112	1448	83	0	84	701	58	-56	51	1514	394
	1589	181	11	701	104	110	1520	82	0	84	697	55	-55	50	1129	395
	1590	174	13	701	104	109	1402	81	0	84	694	57	-55	51	1269	395
	1591	181	12	701	103	107	1636	81	0	84	699	57	-55	54	2395	395
	1592	91	20	701	103	106	1253	80	0	84	704	57	-55	49	1510	395
	1593	72	15	701	103	106	1430	80	0	84	704	57	-55	50	1534	395
	1594	181	9	701	103	105	1346	80	0	84	709	58	-55	50	1807	395
	1595	174	7	701	103	106	1472	83	0	84	702	58	-55	51	1633	395
	1596	183	9	701	103	106	1360	83	0	84	700	58	-55	48	2239	395
	1597	166	12	701	103	106	1541	83	0	84	699	59	-55	46	4836	395
	1598	199	13	701	103	106	1512	83	0	84	694	58	-55	48	3280	395
	1599	177	11	701	103	106	1392	83	0	84	694	58	-55	50	1836	395
	1600	184	12	701	103	107	1539	83	0	84	694	59	-56	51	1787	394
	1601	182	10	701	103	107	1605	83	0	84	694	59	-56	52	2778	394
	1602	161	9	701	103	107	1308	83	0	84	699	56	-56	49	1728	394
	1603	183	13	701	103	107	1429	83	0	84	704	58	-55	51	2164	395
	1604	39	19	701	103	108	1338	82	0	84	704	57	-55	49	2109	395
	1605	202	12	701	103	108	1379	81	0	84	699	56	-55	50	1949	395
	1606	181	8	701	103	108	1486	83	0	84	699	59	-55	49	2111	395
	1607	177	7	701	103	108	1562	83	0	84	699	57	-55	49	1785	395
	1608	184	8	701	103	108	1416	83	0	84	699	56	-56	53	1214	394
	1609	181	8	701	103	108	1405	83	0	84	699	58	-56	50	1840	394
	1610	177	11	701	103	108	1577	83	0	84	699	59	-56	51	2460	394
	1611	184	12	701	103	108	1408	83	0	84	704	56	-56	50	1279	394
	1612	178	10	701	103	108	1443	83	0	84	699	57	-56	48	2622	394
	1613	180	10	701	103	108	1431	83	0	84	709	57	-56	52	1963	394
	1614	177	9	701	103	108	1656	82	0	84	698	58	-57	50	3207	393
	1615	184	16	701	103	108	1567	84	0	84	707	59	-57	49	3155	393
	1616	177	14	701	103	108	1584	85	0	84	700	57	-57	53	1789	393
	1617	90	20	701	103	108	1332	85	0	84	715	57	-57	51	1655	393
	1618	164	17	701	103	108	1494	85	0	84	715	59	-57	51	1949	393
	1619	185	12	701	103	108	1509	85	0	84	715	58	-57	49	2569	393
	1620	181	10	701	103	108	1484	85	0	84	709	56	-57	50	2142	393
	1621	177	16	701	103	104	1525	84	0	84	706	55	-58	39	2673	392
	1622	6	3	701	103	104	1324	82	0	84	696	59	-59	40	3916	391
	1623	181	5	681	102	104	1623	80	0	84	687	56	-58	38	4549	392
	1624	174	4	681	102	104	1377	86	0	84	695	56	-58	40	2460	392
	1625	24	20	666	103	105	1339	86	0	84	704	57	-59	40	1117	391
	1626	7	2	666	104	105	1532	84	0	84	704	57	-63	73	2389	387
	1627	120	2	651	104	105	1407	84	0	84	704	58	-63	73	2950	387
	1628	123	2	681	104	105	1505	84	0	84	704	59	-63	75	1370	387
	1629	119	5	681	104	105	1546	84	0	84	704	57	-63	74	3446	387
	1630	94	17	722	93	98	1080	72	0	76	306	73	58	26	981	508
	1631	116	19	722	93	98	1092	72	0	76	306	73	58	26	1072	508
	1632	177	21	724	93	97	1092	73	0	75	307	73	58	26	1202	508
	1633	203	22	727	93	97	1076	73	0	76	306	73	58	25	948	508
	1634	198	21	727	93	97	1061	73	0	76	304	74	58	26	1224	508
	1635	144	20	733	93	96	1061	73	0	76	306	74	58	26	1262	508
	1636	187	20	733	93	96	1061	73	0	76	303	74	58	25	973	508
	1637	162	21	737	93	96	1092	73	0	76	310	74	58	26	914	508
	1638	145	21	737	94	96	1123	72	0	76	310	73	58	26	884	508
	1639	176	22	737	94	96	1107	71	0	76	310	73	58	26	892	508
	1640	195	20	744	94	96	1107	71	0	76	316	73	58	26	707	508
	1641	70	22	744	95	97	1076	71	0	76	321	74	57	26	900	507
	1642	11	22	745	95	97	1076	71	0	76	321	74	57	26	924	507
	1643	15	23	745	95	97	1076	72	0	76	321	74	56	26	780	506
	1644	10	22	755	95	97	1077	72	0	76	321	73	56	25	1070	506
	1645	0	23	757	91	99	1198	129	0	77	863	76	43	40	2935	493
	1646	17	9	757	91	98	1218	80	0	81	674	73	31	39	7094	481
	1647	77	7	757	91	98	1222	80	0	81	674	75	30	0	0	480
	1648	82	4	742	91	98	1222	80	0	81	674	74	28	38	7211	478
	1649	114	3	742	91	98	1200	80	0	80	671	74	26	41	6661	476
	1650	146	4	742	92	97	1294	80	0	81	674	74	25	0	0	475
	1651	184	5	755	92	97	1230	80	0	81	674	74	25	45	1768	475
	1652	167	4	744	91	97	1311	79	0	80	666	73	24	45	2321	474
	1653	175	5	742	90	97	1269	80	0	81	673	74	24	45	2866	474
	1654	180	4	741	90	98	1199	80	0	80	671	72	22	45	1809	472
	1655	182	7	739	90	98	1279	80	0	81	674	73	22	45	2771	472
	1656	150	8	739	90	98	1309	82	0	82	694	74	22	45	2601	472
	1657	184	7	739	90	98	1200	81	0	82	694	73	22	45	1722	472
	1658	177	7	739	90	98	1313	82	0	82	694	74	22	45	1773	472
	1659	178	8	739	90	98	1349	84	0	82	694	73	26	45	2034	476
	1660	184	7	739	91	98	1220	84	0	82	694	74	27	45	1712	477
	1661	163	10	739	91	98	1263	85	0	82	694	73	27	45	1716	477
	1662	177	9	739	91	98	1262	85	0	81	679	73	27	45	2356	477
	1663	184	8	739	90	98	1269	82	0	82	683	72	27	45	1558	477
	1664	164	7	739	90	98	1351	81	0	81	679	73	27	45	1643	477
	1665	147	10	739	90	98	1297	81	0	81	679	73	27	45	1779	477
	1666	122	11	739	90	98	1280	81	0	81	680	73	28	45	2161	478
	1667	118	11	739	90	98	1291	80	0	80	673	73	27	45	2119	477
	1668	185	9	739	90	98	1261	80	0	80	668	74	27	45	1766	477
	1669	177	7	757	90	98	1234	80	0	81	670	74	27	45	1870	477
	1670	176	6	757	90	98	1307	80	0	81	668	73	27	45	1847	477
	1671	164	6	757	89	98	1292	82	0	81	668	73	27	45	2238	477
	1672	195	6	757	89	98	1276	82	0	81	668	73	27	45	2475	477
	1673	210	6	757	89	98	1261	82	0	81	658	73	27	45	2335	477
	1674	173	8	757	89	98	1292	84	0	83	652	73	27	45	2382	477
	1675	186	8	757	90	99	1307	85	0	84	652	73	27	45	1663	477
	1676	186	8	757	90	99	1307	86	0	84	652	73	27	46	1530	477
	1677	164	5	757	91	99	1276	86	0	81	652	72	27	45	1685	477
	1678	176	8	757	90	99	1276	85	0	80	658	72	28	45	1706	478
	1679	176	5	757	91	99	1276	85	0	80	663	72	26	45	1588	476
	1680	173	6	757	90	98	1261	85	0	78	668	72	26	45	2311	476
	1681	167	5	757	90	98	1261	83	0	81	668	72	26	45	1783	476
	1682	192	10	757	90	98	1261	82	0	81	668	72	26	45	2319	476
	1683	164	5	757	90	98	1246	78	0	83	678	72	26	45	1602	476
	1684	167	7	742	90	98	1200	78	0	84	678	72	26	45	2190	476
	1685	142	7	742	90	98	1138	80	0	82	678	72	26	45	2546	476
	1686	164	6	742	89	98	1107	81	0	82	673	72	26	45	3315	476
	1687	139	6	727	89	98	1138	82	0	82	668	73	26	45	2759	476
	1688	139	8	727	89	98	1169	82	0	81	663	73	35	45	1949	485
	1689	151	9	727	89	98	1215	81	0	80	663	73	45	45	1807	495
	1690	151	10	727	89	98	1230	81	0	80	658	74	52	45	1708	502
	1691	195	6	727	90	98	1230	81	0	80	652	74	57	45	1815	507
	1692	176	8	727	90	98	1215	81	0	80	652	74	50	45	1785	500
	1693	164	10	727	90	97	1215	83	0	81	652	74	47	46	2157	497
