~Version Information
#Data from Mudlog by Horizon Well Logging, Inc., (805)733-0972, horizon@horizon-well-logging.com
#Date Prepared 2020-12-24
#LAS format #2.0
#Generated by HorizonLog v.1.2020.9.0
#DMC Remark
#
#
~Well Information Block
#-------------------------------------------------------------------------
~WELL INFORMATION
#MNEM.UNIT   DATA                        DESCRIPTION
#-------------------------------------------------------------------------
STRT.feet                          130 : Start Depth
STOP.feet                        10987 : Stop Depth
STEP.feet                         1.00 : Depth Step
NULL.                        -999.2500 : Null Value
COMP.                        UtahForge : COMPANY
WELL.                      16A (78)-32 : WELL
FLD.                       Milford, UT : FIELD
LOC.   SEC 32 TWN 26S RNG 09W LAT: 38° : LOCATION
CNTY.                           Beaver : COUNTY
APIN.                                  : API Well Number
UWI.                                   : Unique Well Identifier
DSTRT.                      2020.10.29 : LOG DATE START
DEND.                       2020.12.24 : LOG DATE END
SRVC.       Horizon Well Logging, Inc. : SERVICE COMPANY
#-------------------------------------------------------------------------
~PARAMETER INFORMATION
#MNEM.UNIT   DATA                        DESCRIPTION
#-------------------------------------------------------------------------
FL.       SEC 32 TWN 26S RNG 09W LAT:  : Surface Location
SECT.                                  : Section
TOWN_NO.                               : Township Number
TOWN_DIR.                              : Township Direction
RANG_NO.                               : Range Number
RANGE_DIR.                             : Range Direction
X_LOC.                                 : X Surface Location
Y_LOC.                                 : Y Surface Location
EKB.feet                               : Elevation of Kelly Bushing
EGL.F                                  : Elevation of Ground Level
DMF.                                   : Drilling Measured From
TDD.feet                         10987 : Total Depth - Driller
BLI.feet                         10971 : Bottom Log Interval
TLI.feet                           130 : Top Log Interval
BS.inches                         8.75 : Bit Size
DFT.                              LSND : Drilling Fluid Type
MSS.                                   : Mud Sample Source
LUN.                                32 : Mud Logging Unit Number
R1.                                    : Remark Line 1
R2.                                    : Remark Line 2
R3.                                    : Remark Line 3
R4.                                    : Remark Line 4
R5.                                    : Remark Line 5
R6.                                    : Remark Line 6
R7.                                    : Remark Line 7
R8.                                    : Remark Line 8
R9.                                    : Remark Line 9
R10.                                   : Remark Line 10
#------------------------------------------------------------------
~Curve Information Block
#MNEM.UNIT                               DESCRIPTION
#---- ----                               -----------
DEPTH        .feet                     : Depth
MUDL_ROP     .ft/h                     : Penetration Rate
MUDL_WOB     .1000lbm                  : Weight On Bit
MUDL_CO2     .                         : CO2
MUDL_TEMPIN  .                         : Temperature In
MUDL_TEMPOUT .                         : Temperature Out
MUDL_PP      .psi                      : Pump Pressure
MUDL_SPM1    .1/min                    : Strokes Per Minute Pump #1
MUDL_SPM2    .1/min                    : Strokes Per Minute Pump #2
MUDL_SPM3    .1/min                    : Strokes Per Minute Pump #3
MUDL_FLOWIN  .gal/min                  : Flow In
MUDL_FLOWOUT .percent                  : % Flow Out
MUDL_GAINLOSS.bbls                     : Drilling Fluid Gain/Loss
MUDL_RPM     .rev/min                  : RPM
MUDL_TORQUE  .lb-ft                    : Torque
MUDL_PITVOL  .bbls                     : Pit Volume
#----------------------------------------------------------------------------------------------------------------------------
~A DEPTH  ROP  WOB  CO2  TEMPIN  TEMPOUT  PP  SPM1  SPM2  SPM3  FLOWIN  FLOWOUT%  GAINLOSS  RPM  TORQUE  PITVOL  
# ...
	4413	20	48	1020	151	159	2528	97	0	97	813	78	6	55	4457	456
	4414	22	49	1020	151	159	2790	97	0	97	811	79	5	55	4138	455
	4415	22	48	880	151	159	2681	97	0	97	810	78	4	55	4221	454
	4416	30	48	880	151	159	2709	97	0	97	811	79	3	55	4810	453
	4417	23	49	880	151	159	2620	96	0	96	808	78	2	55	4561	452
	4418	28	49	880	151	159	2636	97	0	97	813	78	2	55	4269	452
	4419	29	48	1020	151	159	2705	97	0	97	812	78	2	55	4520	452
	4420	33	49	1020	151	159	2679	97	0	97	812	78	2	55	4451	452
	4421	23	49	1020	151	159	2601	97	0	97	813	78	1	55	3708	451
	4422	16	49	1020	151	159	2693	97	0	97	810	77	1	55	4502	451
	4423	16	47	1018	151	159	2815	97	0	97	811	79	1	55	4219	451
	4424	26	49	1020	151	159	2530	97	0	97	813	79	1	55	4052	451
	4425	19	48	1020	151	159	2772	97	0	97	812	79	1	55	4121	451
	4426	22	49	1020	151	159	2854	97	0	97	815	79	0	55	4251	450
	4427	30	49	1020	151	159	2849	97	0	97	811	77	0	55	4091	450
	4428	23	48	1020	151	159	2816	97	0	97	811	78	0	55	4575	450
	4429	35	48	1020	151	159	2638	97	0	97	813	78	-3	55	5004	449
	4430	31	49	1020	151	159	2734	97	0	97	907	77	-3	55	4356	449
	4431	22	49	1020	151	159	2522	97	0	97	812	78	-3	55	4304	449
	4432	24	49	1020	151	159	2507	97	0	97	812	79	-2	55	4393	448
	4433	23	49	1020	151	159	2694	97	0	97	813	79	-2	55	4055	448
	4434	36	44	1020	151	159	2842	97	0	97	813	79	-2	55	5385	448
	4435	79	47	1020	151	159	2833	97	0	97	810	79	-2	55	4449	448
	4436	36	49	880	151	159	2572	97	0	97	812	78	-3	55	4427	447
	4437	35	49	1020	151	159	2878	97	0	97	815	79	-2	55	4854	448
	4438	39	49	1020	151	159	2863	97	0	98	810	79	-3	55	4875	447
	4439	37	49	1020	151	159	2851	97	0	97	813	78	-3	55	4660	447
	4440	36	49	1020	151	159	2719	98	0	98	810	79	-4	55	4986	446
	4441	70	35	1020	151	159	2646	98	0	98	813	79	-4	55	4960	446
	4442	198	33	1020	151	159	2717	98	0	98	820	79	-4	55	5638	446
	4443	168	35	1020	151	159	3012	97	0	97	812	78	-4	55	5512	446
	4444	162	43	1020	151	159	2936	97	0	97	815	79	-4	55	4014	446
	4445	171	46	1020	151	159	2691	97	0	97	815	79	-6	55	3895	444
	4446	95	48	1020	151	159	2862	98	0	98	817	79	-4	55	3801	446
	4447	135	47	1020	151	159	2629	97	0	97	812	79	-4	55	3743	446
	4448	90	49	1020	151	159	2717	97	0	97	813	79	-4	55	4405	446
	4449	86	49	1020	151	159	2860	98	0	98	813	79	-4	55	4006	446
	4450	81	49	1020	151	159	2865	97	0	97	813	79	-4	0	0	446
	4451	25	49	1020	151	159	2640	97	0	97	811	79	-4	55	2886	446
	4452	30	46	1020	151	159	2569	97	0	97	813	79	-5	55	4251	445
	4453	46	49	1020	151	159	2592	97	0	97	811	79	-4	55	3945	446
	4454	39	49	1020	151	159	2709	97	0	97	810	79	-4	55	4838	446
	4455	57	49	1020	151	159	2660	97	0	97	812	77	-5	55	4103	445
	4456	56	49	1020	150	159	2838	97	0	97	811	79	-6	55	5030	444
	4457	78	40	1020	150	159	2778	96	0	96	806	79	-6	55	4986	444
	4458	120	46	1020	150	150	2810	97	0	97	815	79	-6	55	4755	444
	4459	112	48	1020	150	159	2838	97	0	98	815	78	-5	55	5192	445
	4460	94	29	1020	149	159	2661	97	0	97	812	78	-9	40	3953	441
	4461	83	39	1020	149	159	2895	97	0	97	810	78	-9	16	4634	441
	4462	78	42	1020	149	159	2819	97	0	97	815	78	-10	40	3826	440
	4463	29	48	1020	149	159	2704	97	0	97	811	78	-10	40	3419	440
	4464	18	49	1020	149	159	2841	97	0	97	812	78	-11	40	3060	439
	4465	13	47	1020	150	159	2753	97	0	97	810	78	-11	40	2975	439
	4466	15	49	1020	150	159	2840	97	0	97	812	77	-11	40	3382	439
	4467	20	49	1020	151	159	2737	97	0	97	812	77	-11	40	3107	439
	4468	15	49	1020	151	159	2666	97	0	97	812	77	-11	50	3546	439
	4469	16	49	1020	151	159	2675	97	0	97	811	78	-11	50	3579	439
	4470	6	32	1020	151	159	2851	97	0	97	810	78	-13	50	3974	437
	4471	22	41	1020	152	159	2806	97	0	97	811	79	-14	50	3949	436
	4472	20	48	1020	151	159	2620	97	0	97	812	78	-14	50	3805	436
	4473	18	49	1020	151	159	2818	96	0	96	808	78	-14	50	3868	436
	4474	17	49	1020	151	159	2793	97	0	97	810	78	-15	50	3536	435
	4475	14	48	1020	152	159	2708	97	0	97	812	78	-16	51	3951	434
	4476	19	47	1020	152	159	2630	97	0	97	812	79	-16	50	3690	434
	4477	20	48	1020	152	159	2926	97	0	97	810	78	-16	50	4172	434
	4478	19	49	880	152	159	2657	88	0	88	808	79	-16	50	4360	434
	4479	18	49	1020	152	159	2694	88	0	97	810	79	-17	50	3542	433
	4480	18	49	1020	152	159	2635	97	0	97	810	79	-17	51	3984	433
	4481	20	49	1020	152	159	2629	97	0	97	812	79	-17	50	4253	433
	4482	20	49	1020	152	159	2580	97	0	97	810	79	-18	50	4032	432
	4483	20	49	1020	152	159	2708	97	0	97	811	79	-18	50	4342	432
	4484	18	49	1020	152	159	2571	97	0	97	815	79	-18	50	3696	432
	4485	14	49	1160	152	159	2619	97	0	97	811	79	-18	50	3692	432
	4486	17	47	1020	152	160	2754	97	0	98	811	79	-18	51	3810	432
	4487	17	49	1020	152	160	2617	97	0	97	811	78	-19	50	4034	431
	4488	16	47	1020	152	160	2678	97	0	97	810	79	-20	50	3795	430
	4489	18	49	1018	152	160	2560	97	0	97	812	78	-20	50	4073	430
	4490	16	49	880	152	160	2624	97	0	97	810	79	-20	50	3751	430
	4491	17	49	880	152	160	2629	97	0	97	810	79	-20	51	3660	430
	4492	15	48	880	152	160	2668	97	0	97	811	79	-21	51	3919	429
	4493	17	49	880	152	160	2758	97	0	97	811	79	-21	50	3749	429
	4494	16	46	880	152	160	2636	97	0	97	811	79	-21	50	3791	429
	4495	16	49	880	152	160	2640	97	0	97	810	78	-21	50	3905	429
	4496	16	49	880	152	160	2546	97	0	97	810	79	-21	50	3781	429
	4497	17	49	880	152	160	2627	97	0	97	810	78	-21	50	3783	429
	4498	17	49	1018	152	160	2699	97	0	97	809	78	-21	51	4125	429
	4499	17	49	880	153	160	2631	97	0	97	811	79	-21	50	4115	429
	4500	17	48	878	152	160	2782	97	0	97	810	79	-21	50	3767	429
	4501	13	49	880	152	160	2659	97	0	97	810	79	-21	50	3684	429
	4502	13	49	880	153	161	2633	96	0	96	807	78	-21	50	4018	429
	4503	12	49	880	153	161	2694	97	0	96	810	78	-21	50	3423	429
	4504	12	49	1016	153	161	2596	97	0	97	812	79	-21	44	3560	429
	4505	14	49	880	153	161	2636	96	0	96	808	79	-21	44	3477	429
	4506	17	49	880	153	162	2581	97	0	97	810	79	-21	43	4073	429
	4507	22	49	880	154	161	2623	97	0	97	811	79	-21	43	3490	429
	4508	18	49	880	154	161	2606	96	0	96	807	79	-21	43	3374	429
	4509	19	49	880	154	162	2813	97	0	97	812	79	-21	44	3652	429
	4510	13	48	880	153	162	2670	96	0	96	808	79	-21	44	3550	429
	4511	15	46	880	153	161	2765	96	0	96	808	79	-19	44	3646	431
	4512	21	47	880	154	161	2693	97	0	97	810	79	-19	43	3265	431
	4513	17	49	880	154	161	2602	96	0	96	808	79	-18	44	3984	432
	4514	16	48	880	154	161	2688	96	0	96	808	78	-17	42	3589	433
	4515	16	49	878	154	161	2659	96	0	96	808	79	-18	43	3465	432
	4516	13	48	880	154	161	2569	97	0	97	810	78	-17	43	3301	433
	4517	17	47	876	154	161	2693	97	0	97	810	79	-18	39	4441	432
	4518	30	47	880	154	161	2814	97	0	97	810	79	-18	43	3850	432
	4519	14	48	880	154	161	2534	97	0	97	811	79	-19	42	3500	431
	4520	12	49	880	153	161	2597	98	0	97	810	79	-18	43	3652	432
	4521	12	48	876	153	161	2642	95	0	97	813	78	-18	43	3396	432
	4522	19	45	880	154	161	2849	96	0	97	811	78	-18	43	3471	432
	4523	20	49	880	154	161	2610	95	0	97	811	79	-18	43	3423	432
	4524	19	49	878	154	162	2666	98	0	97	818	77	-19	43	3506	431
	4525	18	49	878	154	160	2625	98	0	99	818	78	-19	43	3356	431
	4526	3	35	880	152	160	2722	96	0	99	818	77	-19	45	3726	431
	4527	15	43	1014	153	160	2662	97	0	99	808	78	-20	46	3552	430
	4528	14	49	880	153	160	2588	96	0	99	797	78	-20	46	3409	430
	4529	9	48	876	154	161	2770	97	0	99	792	78	-23	45	3188	427
	4530	14	49	874	154	161	2685	96	0	99	792	78	-24	46	3542	426
	4531	38	49	880	154	161	2779	97	0	99	792	78	-26	45	4032	424
	4532	18	49	880	154	161	2756	98	0	99	792	78	-24	45	3818	426
	4533	14	49	880	153	162	2797	98	0	99	792	78	-25	45	3342	425
	4534	15	49	880	153	161	2631	98	0	99	792	79	-25	46	3550	425
	4535	14	49	878	153	162	2690	98	0	99	792	78	-26	45	3520	424
	4536	14	49	880	153	162	2814	98	0	99	792	78	-26	45	3471	424
	4537	15	49	880	154	162	2659	98	0	99	792	78	-27	45	3516	423
	4538	17	48	880	154	161	2671	98	0	98	792	78	-27	45	3814	423
	4539	18	49	876	154	162	2586	98	0	98	792	78	-28	45	3184	422
	4540	16	49	880	154	161	2619	98	0	97	782	77	-28	45	3510	422
	4541	14	49	878	154	161	2593	97	0	97	782	78	-29	46	3540	421
	4542	13	49	880	154	162	2757	97	0	97	782	78	-29	45	3459	421
	4543	15	49	880	154	162	2802	97	0	97	787	77	-29	45	3313	421
	4544	13	48	880	154	161	2564	97	0	96	787	78	-29	46	3188	421
	4545	12	49	880	154	162	2670	97	0	96	787	78	-29	45	3210	421
	4546	11	49	880	154	162	2731	97	0	96	787	78	-29	46	3129	421
