~Version Information
#Data from Mudlog by Horizon Well Logging, Inc., (805)733-0972, horizon@horizon-well-logging.com
#Date Prepared 2020-12-24
#LAS format #2.0
#Generated by HorizonLog v.1.2020.9.0
#DMC Remark
#
#
~Well Information Block
#-------------------------------------------------------------------------
~WELL INFORMATION
#MNEM.UNIT   DATA                        DESCRIPTION
#-------------------------------------------------------------------------
STRT.feet                          130 : Start Depth
STOP.feet                        10987 : Stop Depth
STEP.feet                         1.00 : Depth Step
NULL.                        -999.2500 : Null Value
COMP.                        UtahForge : COMPANY
WELL.                      16A (78)-32 : WELL
FLD.                       Milford, UT : FIELD
LOC.   SEC 32 TWN 26S RNG 09W LAT: 38° : LOCATION
CNTY.                           Beaver : COUNTY
APIN.                                  : API Well Number
UWI.                                   : Unique Well Identifier
DSTRT.                      2020.10.29 : LOG DATE START
DEND.                       2020.12.24 : LOG DATE END
SRVC.       Horizon Well Logging, Inc. : SERVICE COMPANY
#-------------------------------------------------------------------------
~PARAMETER INFORMATION
#MNEM.UNIT   DATA                        DESCRIPTION
#-------------------------------------------------------------------------
FL.       SEC 32 TWN 26S RNG 09W LAT:  : Surface Location
SECT.                                  : Section
TOWN_NO.                               : Township Number
TOWN_DIR.                              : Township Direction
RANG_NO.                               : Range Number
RANGE_DIR.                             : Range Direction
X_LOC.                                 : X Surface Location
Y_LOC.                                 : Y Surface Location
EKB.feet                               : Elevation of Kelly Bushing
EGL.F                                  : Elevation of Ground Level
DMF.                                   : Drilling Measured From
TDD.feet                         10987 : Total Depth - Driller
BLI.feet                         10971 : Bottom Log Interval
TLI.feet                           130 : Top Log Interval
BS.inches                         8.75 : Bit Size
DFT.                              LSND : Drilling Fluid Type
MSS.                                   : Mud Sample Source
LUN.                                32 : Mud Logging Unit Number
R1.                                    : Remark Line 1
R2.                                    : Remark Line 2
R3.                                    : Remark Line 3
R4.                                    : Remark Line 4
R5.                                    : Remark Line 5
R6.                                    : Remark Line 6
R7.                                    : Remark Line 7
R8.                                    : Remark Line 8
R9.                                    : Remark Line 9
R10.                                   : Remark Line 10
#------------------------------------------------------------------
~Curve Information Block
#MNEM.UNIT                               DESCRIPTION
#---- ----                               -----------
DEPTH        .feet                     : Depth
MUDL_ROP     .ft/h                     : Penetration Rate
MUDL_WOB     .1000lbm                  : Weight On Bit
MUDL_CO2     .                         : CO2
MUDL_TEMPIN  .                         : Temperature In
MUDL_TEMPOUT .                         : Temperature Out
MUDL_PP      .psi                      : Pump Pressure
MUDL_SPM1    .1/min                    : Strokes Per Minute Pump #1
MUDL_SPM2    .1/min                    : Strokes Per Minute Pump #2
MUDL_SPM3    .1/min                    : Strokes Per Minute Pump #3
MUDL_FLOWIN  .gal/min                  : Flow In
MUDL_FLOWOUT .percent                  : % Flow Out
MUDL_GAINLOSS.bbls                     : Drilling Fluid Gain/Loss
MUDL_RPM     .rev/min                  : RPM
MUDL_TORQUE  .lb-ft                    : Torque
MUDL_PITVOL  .bbls                     : Pit Volume
#----------------------------------------------------------------------------------------------------------------------------
~A DEPTH  ROP  WOB  CO2  TEMPIN  TEMPOUT  PP  SPM1  SPM2  SPM3  FLOWIN  FLOWOUT%  GAINLOSS  RPM  TORQUE  PITVOL  
# ...
	2245	106	5	750	115	122	1509	81	0	81	679	72	68	40	2165	518
	2246	126	6	752	115	123	1569	81	0	81	678	72	68	40	2382	518
	2247	120	6	752	116	123	1529	81	0	81	680	73	68	44	2261	518
	2248	99	5	752	116	123	1437	81	0	81	681	74	68	44	1860	518
	2249	119	7	749	115	123	1565	81	0	81	678	72	68	44	2384	518
	2250	120	9	752	116	123	1506	81	0	81	681	72	67	43	2518	517
	2251	123	8	752	116	123	1622	81	0	81	679	72	66	44	2647	516
	2252	118	8	752	116	123	1520	81	0	81	678	73	66	45	2182	516
	2253	120	7	752	116	123	1468	81	0	81	678	73	66	45	1560	516
	2254	108	9	752	116	123	1643	82	0	82	685	79	66	45	2244	516
	2255	121	9	752	116	123	1486	81	0	81	682	78	66	45	1649	516
	2256	110	9	752	116	123	1636	82	0	82	683	78	66	44	1331	516
	2257	113	9	752	116	122	1596	81	0	81	681	79	66	44	3607	516
	2258	128	8	752	116	123	1588	81	0	81	681	79	66	44	1692	516
	2259	120	5	752	115	123	1546	81	0	81	681	78	66	44	1574	516
	2260	121	6	752	114	123	1612	81	0	81	677	76	65	43	2653	515
	2261	123	6	752	116	123	1548	81	0	81	678	76	66	45	1835	516
	2262	118	7	752	115	121	1558	81	0	81	677	77	66	45	2834	516
	2263	43	11	752	115	121	1616	81	0	81	677	76	65	44	2388	515
	2264	56	11	752	116	121	1601	82	0	82	684	76	65	44	2352	515
	2265	101	8	752	116	122	1548	81	0	81	678	77	65	44	2129	515
	2266	119	8	752	116	123	1533	82	0	82	683	79	64	45	1902	514
	2267	120	6	752	116	123	1594	81	0	81	679	76	64	44	2111	514
	2268	113	9	752	116	123	1552	81	0	81	682	77	64	44	1242	514
	2269	54	7	752	116	122	1516	81	0	81	679	77	64	44	2143	514
	2270	101	7	752	116	122	1592	81	0	81	678	77	64	44	2080	514
	2271	106	6	752	116	123	1456	81	0	81	678	77	64	44	1528	514
	2272	105	10	752	116	123	1457	81	0	81	679	76	64	45	1469	514
	2273	121	6	752	116	123	1637	81	0	81	679	76	64	44	1845	514
	2274	100	9	752	115	122	1594	81	0	81	678	77	63	43	3038	513
	2275	112	9	752	114	123	1607	81	0	81	682	79	63	45	1817	513
	2276	113	9	752	114	123	1614	81	0	81	678	78	63	44	1724	513
	2277	94	9	752	115	123	1642	82	0	82	684	76	63	44	1979	513
	2278	112	8	752	115	123	1621	81	0	81	679	77	63	44	2303	513
	2279	108	9	752	115	123	1552	81	0	81	681	77	63	44	2621	513
	2280	110	9	752	115	123	1519	81	0	81	680	77	63	44	2038	513
	2281	115	10	752	115	123	1540	81	0	81	679	79	62	44	1985	512
	2282	120	9	752	114	123	1515	81	0	81	680	77	62	45	2040	512
	2283	112	9	752	114	122	1539	81	0	81	678	77	62	44	1712	512
	2284	100	11	752	115	124	1580	82	0	82	684	77	61	45	2842	511
	2285	3	11	752	116	123	1588	80	0	80	674	73	58	40	1700	508
	2286	30	10	749	116	123	1658	81	0	81	679	74	56	41	2755	506
	2287	53	10	752	116	124	1610	81	0	81	676	73	56	41	2240	506
	2288	58	9	752	116	124	1598	81	0	81	675	74	56	40	1949	506
	2289	52	11	752	116	124	1615	81	0	81	677	74	55	41	3050	505
	2290	54	11	752	117	124	1586	81	0	81	680	74	55	41	2038	505
	2291	90	7	748	117	124	1574	81	0	81	678	75	55	40	2018	505
	2292	95	9	752	117	125	1686	81	0	81	681	73	54	40	3024	504
	2293	28	11	750	117	125	1471	80	0	80	672	73	54	40	2846	504
	2294	10	10	750	117	125	1607	81	0	81	676	75	56	40	1528	506
	2295	41	7	750	117	125	1490	81	0	81	676	74	55	41	2173	505
	2296	90	6	750	116	125	1531	81	0	81	677	73	55	40	2864	505
	2297	112	8	750	117	125	1636	81	0	81	679	73	55	40	1319	505
	2298	105	8	750	117	126	1519	80	0	80	674	72	55	41	1408	505
	2299	24	11	750	118	126	1540	81	0	81	676	73	53	41	1730	503
	2300	23	10	750	119	126	1513	80	0	80	674	71	52	40	1999	502
	2301	69	10	750	119	126	1587	80	0	80	672	73	52	40	2678	502
	2302	67	10	750	119	126	1637	81	0	81	681	79	52	40	2109	502
	2303	32	10	750	119	126	1550	81	0	81	678	78	52	40	2609	502
	2304	67	11	750	119	126	1591	81	0	81	675	76	52	41	1440	502
	2305	75	9	752	119	125	1555	81	0	81	675	77	51	41	1096	501
	2306	4	10	750	120	125	1483	81	0	81	678	77	49	43	1787	499
	2307	70	6	752	120	125	1590	81	0	81	677	77	49	42	1390	499
	2308	128	6	752	120	126	1577	80	0	80	674	78	49	42	2163	499
	2309	139	7	749	120	126	1548	80	0	80	673	77	49	42	2732	499
	2310	99	11	752	120	125	1546	81	0	81	675	77	49	42	2078	499
	2311	53	10	752	119	126	1628	81	0	81	675	75	48	42	3121	498
	2312	19	11	752	119	127	1448	80	0	80	669	77	48	43	1507	498
	2313	4	4	752	122	127	1461	81	0	81	675	74	52	42	1530	502
	2314	76	5	752	121	127	1552	80	0	80	670	73	52	43	2216	502
	2315	82	7	752	122	126	1570	80	0	80	674	77	52	42	3127	502
	2316	85	9	752	122	127	1594	81	0	81	678	78	52	42	2131	502
	2317	87	7	752	121	126	1572	81	0	81	679	80	52	43	1935	502
	2318	85	8	752	121	127	1579	81	0	81	675	79	52	43	2131	502
	2319	82	9	752	121	126	1554	81	0	81	678	73	52	43	1671	502
	2320	91	7	752	121	127	1522	81	0	81	678	73	52	42	1756	502
	2321	59	12	752	121	127	1497	81	0	81	677	74	53	43	1236	503
	2322	52	9	752	122	127	1504	81	0	81	675	74	54	43	1637	504
	2323	62	6	750	122	127	1522	80	0	80	671	74	53	42	2127	503
	2324	78	6	752	123	127	1551	81	0	81	677	73	39	43	2086	489
	2325	78	8	752	121	127	1513	80	0	80	673	72	35	43	1683	485
	2326	82	8	752	118	126	1610	81	0	81	676	72	35	42	2275	485
	2327	60	11	752	119	127	1666	81	0	81	675	73	39	42	2514	489
	2328	82	9	752	119	126	1559	81	0	81	675	73	40	41	2325	490
	2329	81	7	752	119	127	1629	80	0	80	674	72	41	42	1799	491
	2330	85	8	752	119	126	1589	81	0	81	677	73	42	41	3070	492
	2331	76	11	752	118	126	1590	81	0	81	675	78	42	42	2522	492
	2332	79	8	752	119	126	1502	80	0	80	673	78	42	41	2791	492
	2333	85	6	752	118	127	1596	80	0	80	673	79	42	41	1738	492
	2334	70	8	752	119	127	1517	81	0	81	675	79	40	42	1629	490
	2335	46	10	752	119	127	1562	81	0	81	677	79	40	42	1939	490
	2336	33	10	752	120	126	1490	80	0	80	674	78	39	41	1256	489
	2337	5	9	752	119	127	1555	81	0	81	677	72	27	45	1754	477
	2338	64	9	752	120	126	1628	81	0	81	677	73	28	44	1740	478
	2339	101	8	752	120	126	1599	81	0	81	678	74	28	45	1534	478
	2340	72	8	752	120	126	1565	81	0	81	676	72	29	44	2028	479
	2341	27	8	752	121	125	1507	81	0	81	678	73	29	44	1675	479
	2342	31	8	752	120	125	1542	80	0	80	674	79	33	45	1845	483
	2343	36	8	752	120	125	1479	80	0	80	670	78	36	45	250	486
	2344	50	8	752	120	126	1541	81	0	81	675	75	38	45	1864	488
	2345	26	9	752	120	125	1501	80	0	80	673	74	40	45	1230	490
	2346	26	9	752	121	126	1540	80	0	80	671	74	45	44	1114	495
	2347	37	9	752	121	125	1542	80	0	80	674	80	48	45	1050	498
	2348	34	8	752	121	125	1564	80	0	80	674	79	49	45	1854	499
	2349	51	8	752	121	124	1487	81	0	81	676	78	55	44	1920	505
	2350	58	9	752	121	124	1561	81	0	81	677	77	61	44	1963	511
	2351	78	9	752	121	123	1538	80	0	80	672	77	61	44	1902	511
	2352	24	9	752	121	123	1861	82	0	82	683	74	56	44	2670	506
	2353	50	7	752	119	123	1626	81	0	81	678	74	57	44	1825	507
	2354	96	8	752	118	123	1670	81	0	81	679	73	58	44	2437	508
	2355	98	8	752	118	123	1677	81	0	81	675	72	59	45	2497	509
	2356	101	7	753	117	123	1569	80	0	80	674	72	60	44	2386	510
	2357	38	9	752	116	123	1524	80	0	80	674	72	62	44	1665	512
	2358	37	9	752	116	123	1626	81	0	81	678	71	64	44	2465	514
	2359	63	7	752	116	123	1543	81	0	81	675	73	65	44	2074	515
	2360	72	6	752	116	123	1554	80	0	80	671	73	66	44	1376	516
	2361	64	9	752	116	123	1553	81	0	81	676	73	67	44	2015	517
	2362	72	8	752	116	123	1591	80	0	80	673	72	67	44	1663	517
	2363	55	9	752	116	123	1578	80	0	80	670	71	67	44	2007	517
	2364	72	7	752	117	123	1579	80	0	80	672	78	68	44	1892	518
	2365	36	9	752	117	121	1593	80	0	80	673	73	70	44	1756	520
	2366	33	9	752	116	118	1583	80	0	80	674	73	73	44	2591	523
	2367	72	9	752	116	115	1562	80	0	80	673	71	74	44	2175	524
	2368	60	8	752	116	113	1566	80	0	80	673	73	74	44	1957	524
	2369	79	7	752	116	125	1587	81	0	81	674	72	75	44	2022	525
	2370	6	3	752	119	125	1515	81	0	81	675	72	76	40	1525	526
	2371	69	4	752	119	125	1570	81	0	81	677	74	76	41	1234	526
	2372	70	2	752	119	125	1485	81	0	81	676	72	76	41	1698	526
	2373	69	3	752	119	125	1573	81	0	81	677	73	75	40	1854	525
	2374	70	3	752	119	125	1488	81	0	81	676	71	75	40	1493	525
	2375	68	3	752	119	124	1508	81	0	81	676	73	75	41	1760	525
	2376	70	7	752	119	125	1661	81	0	81	682	73	74	41	2621	524
	2377	52	8	752	119	124	1539	81	0	81	678	71	67	41	2113	517
	2378	35	9	752	119	124	1555	81	0	81	676	72	48	40	1768	498
	2379	38	7	752	119	124	1538	81	0	81	679	74	29	40	2493	479
	2380	72	4	752	119	124	1494	81	0	81	676	70	19	40	2007	469
	2381	67	3	752	119	121	1548	81	0	81	676	72	9	41	2011	459
